{"type":"FeatureCollection","features":[{"type":"Feature","id":1,"geometry":{"type":"Point","coordinates":[107.88803210000003,34.440897370000073]},"properties":{"OBJECTID":1,"id":"1-168","time":"商中期","name":"兽面纹高足杯","location_name":"陕西扶风法门镇","appearance":"兽面纹云雷纹联珠纹","longitude":107.8880321,"latitude":34.440897370000002}},{"type":"Feature","id":2,"geometry":{"type":"Point","coordinates":[109.33032830000008,34.204339000000061]},"properties":{"OBJECTID":2,"id":"5-126","time":"西周中晚期","name":"波曲纹杯","location_name":"陕西长安张家坡西周窖藏","appearance":"波曲纹","longitude":109.33032830000001,"latitude":34.204338999999997}},{"type":"Feature","id":3,"geometry":{"type":"Point","coordinates":[109.33032830000008,34.204339000000061]},"properties":{"OBJECTID":3,"id":"5-127","time":"西周中晚期","name":"双鋬杯","location_name":"陕西长安张家坡西周窖藏","appearance":"变形龙纹","longitude":109.33032830000001,"latitude":34.204338999999997}},{"type":"Feature","id":4,"geometry":{"type":"Point","coordinates":[109.33032830000008,34.204339000000061]},"properties":{"OBJECTID":4,"id":"5-128","time":"西周中晚期","name":"单鋬杯","location_name":"陕西长安张家坡西周窖藏","appearance":null,"longitude":109.33032830000001,"latitude":34.204338999999997}},{"type":"Feature","id":5,"geometry":{"type":"Point","coordinates":[109.33032830000008,34.204339000000061]},"properties":{"OBJECTID":5,"id":"5-129","time":"西周中晚期","name":"长柄杯","location_name":"陕西长安张家坡西周窖藏","appearance":null,"longitude":109.33032830000001,"latitude":34.204338999999997}},{"type":"Feature","id":6,"geometry":{"type":"Point","coordinates":[112.03887840000004,30.81593169000007]},"properties":{"OBJECTID":6,"id":"10-61","time":"战国中期","name":"鹰流杯","location_name":"湖北荆门包山二号墓","appearance":null,"longitude":112.0388784,"latitude":30.815931689999999}},{"type":"Feature","id":7,"geometry":{"type":"Point","coordinates":[115.29438550000009,38.948791120000067]},"properties":{"OBJECTID":7,"id":"12-73","time":"西汉中期","name":null,"location_name":"河北满城陵山中山靖王刘胜妻窦绾墓","appearance":"错金柿蒂纹错卷云纹","longitude":115.2943855,"latitude":38.948791120000003}},{"type":"Feature","id":8,"geometry":{"type":"Point","coordinates":[115.29438550000009,38.948791120000067]},"properties":{"OBJECTID":8,"id":"12-74","time":"西汉中期","name":"鎏金菱形纹杯","location_name":"河北满城陵山中山靖王刘胜墓","appearance":"菱形花纹","longitude":115.2943855,"latitude":38.948791120000003}},{"type":"Feature","id":9,"geometry":{"type":"Point","coordinates":[102.79196050000007,24.401772970000025]},"properties":{"OBJECTID":9,"id":"14-50","time":"战国","name":"立牛杯","location_name":"云南江川李家山","appearance":"鸟纹竹节纹","longitude":102.7919605,"latitude":24.40177297}},{"type":"Feature","id":10,"geometry":{"type":"Point","coordinates":[115.67782080000006,32.166692170000033]},"properties":{"OBJECTID":10,"id":"7月29日","time":"春秋中期","name":"蟠龙纹镈","location_name":"河南新郑城关","appearance":"蟠龙纹","longitude":115.67782080000001,"latitude":32.166692169999997}},{"type":"Feature","id":11,"geometry":{"type":"Point","coordinates":[113.73399890000007,34.386873810000054]},"properties":{"OBJECTID":11,"id":"7月30日","time":"春秋中期","name":"兽目交连纹编镈","location_name":"河南新郑金城路","appearance":"云纹兽目交连纹","longitude":113.7339989,"latitude":34.386873809999997}},{"type":"Feature","id":12,"geometry":{"type":"Point","coordinates":[107.45086260000005,34.348091540000041]},"properties":{"OBJECTID":12,"id":"7-52","time":"春秋早期","name":"秦公镈","location_name":"陕西宝鸡太公庙","appearance":"菱形纹蟠龙纹凤鸟纹","longitude":107.45086259999999,"latitude":34.348091539999999}},{"type":"Feature","id":13,"geometry":{"type":"Point","coordinates":[112.48956580000004,37.775186750000046]},"properties":{"OBJECTID":13,"id":"8-113","time":"春秋晚期","name":"蟠蛇纹编镈","location_name":"山西太原金胜村","appearance":"蟠蛇纹","longitude":112.48956579999999,"latitude":37.775186750000003}},{"type":"Feature","id":14,"geometry":{"type":"Point","coordinates":[112.48956580000004,37.775186750000046]},"properties":{"OBJECTID":14,"id":"8-114","time":"春秋晚期","name":"蟠蛇纹编镈","location_name":"山西太原金胜村","appearance":"蟠蛇纹","longitude":112.48956579999999,"latitude":37.775186750000003}},{"type":"Feature","id":15,"geometry":{"type":"Point","coordinates":[113.35663210000007,36.432260480000025]},"properties":{"OBJECTID":15,"id":"8-147","time":"战国早期","name":"羽翅纹镈","location_name":"山西潞城潞河墓地","appearance":"蟠龙纹云纹羽翅纹","longitude":113.3566321,"latitude":36.432260479999997}},{"type":"Feature","id":16,"geometry":{"type":"Point","coordinates":[113.35663210000007,36.432260480000025]},"properties":{"OBJECTID":16,"id":"8-148","time":"战国早期","name":"羽翅纹镈","location_name":"山西潞城潞河墓地","appearance":"蟠龙纹云纹羽翅纹","longitude":113.3566321,"latitude":36.432260479999997}},{"type":"Feature","id":17,"geometry":{"type":"Point","coordinates":[110.48267240000007,35.340115550000064]},"properties":{"OBJECTID":17,"id":"9-37","time":"春秋早期","name":"*镈","location_name":"山西万荣县庙前村","appearance":"云雷纹","longitude":110.4826724,"latitude":35.34011555}},{"type":"Feature","id":18,"geometry":{"type":"Point","coordinates":[119.33834830000001,35.941411170000038]},"properties":{"OBJECTID":18,"id":"9-38","time":"战国早期","name":"莒公孙朝子镈","location_name":"山东诸城臧家庄","appearance":"三角雷纹涡纹浪花纹蟠蛇纹","longitude":119.33834830000001,"latitude":35.941411170000002}},{"type":"Feature","id":19,"geometry":{"type":"Point","coordinates":[119.33834830000001,35.941411170000038]},"properties":{"OBJECTID":19,"id":"9-39","time":"战国早期","name":"莒公孙朝子镈","location_name":"山东诸城臧家庄","appearance":"三角雷纹涡纹浪花纹蟠蛇纹","longitude":119.33834830000001,"latitude":35.941411170000002}},{"type":"Feature","id":20,"geometry":{"type":"Point","coordinates":[115.67782080000006,32.166692170000033]},"properties":{"OBJECTID":20,"id":"11-67","time":"春秋晚期","name":"交龙纹镈","location_name":"河南固始侯古堆","appearance":"交龙纹","longitude":115.67782080000001,"latitude":32.166692169999997}},{"type":"Feature","id":21,"geometry":{"type":"Point","coordinates":[119.63918790000002,32.177351960000067]},"properties":{"OBJECTID":21,"id":"11-162","time":"春秋晚期","name":"**镈","location_name":"江苏丹徒大港北山顶","appearance":"交龙纹龙纹","longitude":119.6391879,"latitude":32.177351960000003}},{"type":"Feature","id":22,"geometry":{"type":"Point","coordinates":[114.23179260000006,36.213254360000064]},"properties":{"OBJECTID":22,"id":"3-70","time":"商代晚期","name":"兽面纹瓿","location_name":"河南安阳","appearance":"变形兽面纹兽面纹云雷纹","longitude":114.23179260000001,"latitude":36.213254360000001}},{"type":"Feature","id":23,"geometry":{"type":"Point","coordinates":[114.42920350000009,35.909638480000069]},"properties":{"OBJECTID":23,"id":"3-71","time":"商代晚期","name":"百乳雷纹瓿","location_name":"河南安阳小屯二三二号墓","appearance":"三角纹云雷纹百乳雷纹目纹","longitude":114.4292035,"latitude":35.909638479999998}},{"type":"Feature","id":24,"geometry":{"type":"Point","coordinates":[114.3089136000001,36.140168100000039]},"properties":{"OBJECTID":24,"id":"3-72","time":"商代晚期","name":"勾连雷纹瓿","location_name":"河南安阳武官北地一号墓","appearance":"龙纹勾连雷纹云雷纹","longitude":114.3089136,"latitude":36.140168099999997}},{"type":"Feature","id":25,"geometry":{"type":"Point","coordinates":[114.42920350000009,35.909638480000069]},"properties":{"OBJECTID":25,"id":"3-73","time":"商代晚期","name":"妇好瓿","location_name":"河南安阳小屯五号墓","appearance":"兽面纹龙纹","longitude":114.4292035,"latitude":35.909638479999998}},{"type":"Feature","id":26,"geometry":{"type":"Point","coordinates":[114.33036230000005,36.124591750000036]},"properties":{"OBJECTID":26,"id":"3-74","time":"商代晚期","name":"勾连雷纹瓿","location_name":"河南安阳大司空南六六三号墓","appearance":"龙纹勾连雷纹","longitude":114.3303623,"latitude":36.12459175}},{"type":"Feature","id":27,"geometry":{"type":"Point","coordinates":[114.3089136000001,36.140168100000039]},"properties":{"OBJECTID":27,"id":"3-75","time":"商代晚期","name":"百乳雷纹瓿","location_name":"河南安阳武官北地","appearance":"龙纹联珠纹百乳雷纹雷纹","longitude":114.3089136,"latitude":36.140168099999997}},{"type":"Feature","id":28,"geometry":{"type":"Point","coordinates":[114.42920350000009,35.909638480000069]},"properties":{"OBJECTID":28,"id":"3-76","time":"商代晚期","name":"兽面纹瓿","location_name":"河南安阳小屯五号墓","appearance":"兽面纹","longitude":114.4292035,"latitude":35.909638479999998}},{"type":"Feature","id":29,"geometry":{"type":"Point","coordinates":[113.11601310000003,29.144447800000023]},"properties":{"OBJECTID":29,"id":"4-93","time":"商代晚期","name":"兽面纹瓿","location_name":"湖南岳阳鲂鱼山","appearance":"龙纹火纹变形四瓣目纹兽面纹鱼纹","longitude":113.1160131,"latitude":29.144447799999998}},{"type":"Feature","id":30,"geometry":{"type":"Point","coordinates":[113.11601310000003,29.144447800000023]},"properties":{"OBJECTID":30,"id":"4-94","time":"商代晚期","name":"兽面纹瓿","location_name":"湖南岳阳鲂鱼山","appearance":"龙纹火纹变形四瓣目纹兽面纹鱼纹","longitude":113.1160131,"latitude":29.144447799999998}},{"type":"Feature","id":31,"geometry":{"type":"Point","coordinates":[114.39372850000007,30.865936500000032]},"properties":{"OBJECTID":31,"id":"4-95","time":"商代晚期","name":"兽面纹瓿","location_name":"湖北黄陂鲁台镇","appearance":"变形龙纹目雷纹兽面纹鸟首纹","longitude":114.39372849999999,"latitude":30.8659365}},{"type":"Feature","id":32,"geometry":{"type":"Point","coordinates":[118.84004950000008,31.952515840000046]},"properties":{"OBJECTID":32,"id":"4-96","time":"商代晚期","name":"兽面纹瓿","location_name":"江苏江宁","appearance":"鸟纹兽面纹目雷纹","longitude":118.84004950000001,"latitude":31.95251584}},{"type":"Feature","id":33,"geometry":{"type":"Point","coordinates":[114.71836740000003,38.035978420000049]},"properties":{"OBJECTID":33,"id":"4-100","time":"商代晚期","name":"兽面纹瓿","location_name":"河北藁城台西","appearance":"鸟首纹雷纹联珠纹兽面纹目雷纹","longitude":114.71836740000001,"latitude":38.035978419999999}},{"type":"Feature","id":34,"geometry":{"type":"Point","coordinates":[107.37999130000009,33.191478810000035]},"properties":{"OBJECTID":34,"id":"4-101","time":"商代晚期","name":"兽面纹瓿","location_name":"陕西洋县马畅","appearance":"变形龙纹兽面纹雷纹","longitude":107.3799913,"latitude":33.19147881}},{"type":"Feature","id":35,"geometry":{"type":"Point","coordinates":[111.93690000000004,28.017819790000033]},"properties":{"OBJECTID":35,"id":"4-102","time":"商代晚期","name":"兽面纹瓿","location_name":"湖南宁乡寨子山","appearance":"兽面纹龙纹","longitude":111.93689999999999,"latitude":28.017819790000001}},{"type":"Feature","id":36,"geometry":{"type":"Point","coordinates":[111.93690000000004,28.017819790000033]},"properties":{"OBJECTID":36,"id":"4-103","time":"商代晚期","name":"兽面纹瓿","location_name":"湖南宁乡寨子山","appearance":"兽面纹龙纹","longitude":111.93689999999999,"latitude":28.017819790000001}},{"type":"Feature","id":37,"geometry":{"type":"Point","coordinates":[111.93690000000004,28.017819790000033]},"properties":{"OBJECTID":37,"id":"4-104","time":"商代晚期","name":"兽面纹瓿","location_name":"湖南宁乡寨子山","appearance":"兽面纹龙纹","longitude":111.93689999999999,"latitude":28.017819790000001}},{"type":"Feature","id":38,"geometry":{"type":"Point","coordinates":[107.31824520000004,33.182741400000054]},"properties":{"OBJECTID":38,"id":"4-105","time":"商代晚期","name":"兽面纹瓿","location_name":"陕西城固五郎庙","appearance":"兽面纹","longitude":107.31824520000001,"latitude":33.182741399999998}},{"type":"Feature","id":39,"geometry":{"type":"Point","coordinates":[119.67343470000003,41.01499294000007]},"properties":{"OBJECTID":39,"id":"4-106","time":"商代晚期","name":"勾连雷纹瓿","location_name":"辽宁喀左北洞","appearance":"目雷纹联珠纹勾连雷纹","longitude":119.6734347,"latitude":41.014992939999999}},{"type":"Feature","id":40,"geometry":{"type":"Point","coordinates":[110.67816430000005,38.026291530000037]},"properties":{"OBJECTID":40,"id":"4-107","time":"商代晚期","name":"乳钉雷纹瓿","location_name":"山西石楼后阑家沟","appearance":"卷体龙纹乳钉雷纹雷纹","longitude":110.67816430000001,"latitude":38.026291530000002}},{"type":"Feature","id":41,"geometry":{"type":"Point","coordinates":[110.99498390000008,38.814999430000057]},"properties":{"OBJECTID":41,"id":"4-108","time":"商代晚期","name":"乳钉雷纹瓿","location_name":"山西保德林遮峪","appearance":"变形龙纹乳钉雷纹雷纹","longitude":110.99498389999999,"latitude":38.81499943}},{"type":"Feature","id":42,"geometry":{"type":"Point","coordinates":[119.5743447000001,32.167147020000073]},"properties":{"OBJECTID":42,"id":"11-70","time":"春秋晚期","name":"人面纹錞于","location_name":"江苏丹徒谏壁王家山","appearance":"雷纹云纹三角形云雷纹人面纹变体云纹螺旋纹","longitude":119.5743447,"latitude":32.167147020000002}},{"type":"Feature","id":43,"geometry":{"type":"Point","coordinates":[119.5743447000001,32.167147020000073]},"properties":{"OBJECTID":43,"id":"11-71","time":"春秋晚期","name":"人面纹錞于","location_name":"江苏丹徒谏壁王家山","appearance":"雷纹云纹三角形云雷纹人面纹变体云纹螺旋纹","longitude":119.5743447,"latitude":32.167147020000002}},{"type":"Feature","id":44,"geometry":{"type":"Point","coordinates":[119.63918790000002,32.177351960000067]},"properties":{"OBJECTID":44,"id":"11-72","time":"春秋晚期","name":"雷纹錞于","location_name":"江苏丹徒大港北山顶","appearance":"绳索纹雷纹龙纹","longitude":119.6391879,"latitude":32.177351960000003}},{"type":"Feature","id":45,"geometry":{"type":"Point","coordinates":[107.48425470000006,29.554062610000074]},"properties":{"OBJECTID":45,"id":"13-184","time":"战国","name":"虎钮錞于","location_name":"四川涪陵小田溪","appearance":null,"longitude":107.48425469999999,"latitude":29.554062609999999}},{"type":"Feature","id":46,"geometry":{"type":"Point","coordinates":[107.48425470000006,29.554062610000074]},"properties":{"OBJECTID":46,"id":"13-185","time":"战国","name":"虎钮錞于","location_name":"四川涪陵小田溪","appearance":null,"longitude":107.48425469999999,"latitude":29.554062609999999}},{"type":"Feature","id":47,"geometry":{"type":"Point","coordinates":[103.83802400000008,30.320976970000061]},"properties":{"OBJECTID":47,"id":"13-186","time":"战国","name":"虎钮錞于","location_name":"四川彭山同乐乡","appearance":null,"longitude":103.838024,"latitude":30.32097697}},{"type":"Feature","id":48,"geometry":{"type":"Point","coordinates":[113.35523870000009,31.727031110000041]},"properties":{"OBJECTID":48,"id":"10-142","time":"战国早期","name":"曾侯乙鼎形器","location_name":"湖北随州擂鼓墩一号墓","appearance":"勾连纹垂叶纹","longitude":113.3552387,"latitude":31.727031109999999}},{"type":"Feature","id":49,"geometry":{"type":"Point","coordinates":[114.35725400000001,36.080882630000076]},"properties":{"OBJECTID":49,"id":"2-102","time":"商代晚期","name":"弦纹豆","location_name":"河南安阳郭家庄东南一号墓","appearance":"凸弦纹","longitude":114.357254,"latitude":36.080882629999998}},{"type":"Feature","id":50,"geometry":{"type":"Point","coordinates":[116.75199430000009,36.553918600000031]},"properties":{"OBJECTID":50,"id":"4-48","time":"商代晚期","name":"火纹豆","location_name":"山东长清兴复河","appearance":"火纹","longitude":116.75199430000001,"latitude":36.553918600000003}},{"type":"Feature","id":51,"geometry":{"type":"Point","coordinates":[110.99498390000008,38.814999430000057]},"properties":{"OBJECTID":51,"id":"4-49","time":"商代晚期","name":"铃豆","location_name":"山西保德林遮峪","appearance":"弦纹","longitude":110.99498389999999,"latitude":38.81499943}},{"type":"Feature","id":52,"geometry":{"type":"Point","coordinates":[115.44988960000001,27.912298660000033]},"properties":{"OBJECTID":52,"id":"4-51","time":"商代晚期","name":"兽面纹假腹豆","location_name":"江西新干大洋洲","appearance":"火纹斜角目雷纹目雷纹兽面纹雷纹","longitude":115.44988960000001,"latitude":27.912298660000001}},{"type":"Feature","id":53,"geometry":{"type":"Point","coordinates":[107.45882260000008,34.357934020000073]},"properties":{"OBJECTID":53,"id":"5-75","time":"西周中期","name":"周生豆","location_name":"陕西宝鸡西高泉村","appearance":"火龙纹垂鳞纹","longitude":107.4588226,"latitude":34.357934020000002}},{"type":"Feature","id":54,"geometry":{"type":"Point","coordinates":[111.20601760000005,34.786205100000075]},"properties":{"OBJECTID":54,"id":"7月8日","time":"春秋早期","name":"兽形豆","location_name":"河南三门峡上村镇虢国墓地","appearance":null,"longitude":111.2060176,"latitude":34.786205099999997}},{"type":"Feature","id":55,"geometry":{"type":"Point","coordinates":[116.77465700000005,32.576522630000056]},"properties":{"OBJECTID":55,"id":"7-68","time":"春秋晚期","name":"嵌红铜兽纹豆","location_name":"安徽寿县蔡侯墓","appearance":"花纹","longitude":116.774657,"latitude":32.576522629999999}},{"type":"Feature","id":56,"geometry":{"type":"Point","coordinates":[114.90021830000001,32.011303220000059]},"properties":{"OBJECTID":56,"id":"7-82","time":"春秋早期","name":"黄君孟豆","location_name":"河南光山宝相寺","appearance":null,"longitude":114.90021830000001,"latitude":32.011303220000002}},{"type":"Feature","id":57,"geometry":{"type":"Point","coordinates":[114.90021830000001,32.011303220000059]},"properties":{"OBJECTID":57,"id":"7-83","time":"春秋早期","name":"黄夫人豆","location_name":"河南光山宝相寺","appearance":null,"longitude":114.90021830000001,"latitude":32.011303220000002}},{"type":"Feature","id":58,"geometry":{"type":"Point","coordinates":[112.42793130000007,34.660723970000049]},"properties":{"OBJECTID":58,"id":"7-136","time":"战国早期","name":"哀成叔豆","location_name":"河南洛阳市西工区","appearance":null,"longitude":112.4279313,"latitude":34.660723969999999}},{"type":"Feature","id":59,"geometry":{"type":"Point","coordinates":[113.64498590000005,39.643244160000052]},"properties":{"OBJECTID":59,"id":"8-37","time":"春秋晚期","name":"镶嵌狩猎纹豆","location_name":"山西浑源李峪村","appearance":"狩猎纹","longitude":113.64498589999999,"latitude":39.643244160000002}},{"type":"Feature","id":60,"geometry":{"type":"Point","coordinates":[113.64498590000005,39.643244160000052]},"properties":{"OBJECTID":60,"id":"8-38","time":"春秋晚期","name":"四虎蟠龙纹豆","location_name":"山西浑源李峪村","appearance":"蟠龙纹","longitude":113.64498589999999,"latitude":39.643244160000002}},{"type":"Feature","id":61,"geometry":{"type":"Point","coordinates":[112.48956580000004,37.775186750000046]},"properties":{"OBJECTID":61,"id":"8-39","time":"春秋晚期","name":"镶嵌粗蛇纹豆","location_name":"山西太原金胜村","appearance":"粗蛇纹","longitude":112.48956579999999,"latitude":37.775186750000003}},{"type":"Feature","id":62,"geometry":{"type":"Point","coordinates":[112.48956580000004,37.775186750000046]},"properties":{"OBJECTID":62,"id":"8-40","time":"春秋晚期","name":"蟠蛇纹豆","location_name":"山西太原金胜村","appearance":"三角回纹螺旋纹绹索纹蟠蛇纹","longitude":112.48956579999999,"latitude":37.775186750000003}},{"type":"Feature","id":63,"geometry":{"type":"Point","coordinates":[112.48956580000004,37.775186750000046]},"properties":{"OBJECTID":63,"id":"8-41","time":"春秋晚期","name":"蟠蛇纹豆","location_name":"山西太原金胜村","appearance":"三角回纹螺旋纹绹索纹蟠蛇纹","longitude":112.48956579999999,"latitude":37.775186750000003}},{"type":"Feature","id":64,"geometry":{"type":"Point","coordinates":[112.48956580000004,37.775186750000046]},"properties":{"OBJECTID":64,"id":"8-42","time":"春秋晚期","name":"交龙纹方座豆","location_name":"山西太原金胜村","appearance":"粗绹索纹细蛇纹S形交龙纹","longitude":112.48956579999999,"latitude":37.775186750000003}},{"type":"Feature","id":65,"geometry":{"type":"Point","coordinates":[112.48956580000004,37.775186750000046]},"properties":{"OBJECTID":65,"id":"8-43","time":"春秋晚期","name":"夔凤纹豆","location_name":"山西太原金胜村","appearance":"S形夔凤纹绹索纹","longitude":112.48956579999999,"latitude":37.775186750000003}},{"type":"Feature","id":66,"geometry":{"type":"Point","coordinates":[113.11601660000008,36.195447520000073]},"properties":{"OBJECTID":66,"id":"8-135","time":"战国早期","name":"错金云纹豆","location_name":"山西长治分水镇","appearance":"云纹垂叶纹斜角云纹","longitude":113.11601659999999,"latitude":36.195447520000002}},{"type":"Feature","id":67,"geometry":{"type":"Point","coordinates":[113.35663210000007,36.432260480000025]},"properties":{"OBJECTID":67,"id":"8-136","time":"战国早期","name":"夔凤纹方座豆","location_name":"山西潞城潞河墓地","appearance":"变形夔凤纹三角云雷纹","longitude":113.3566321,"latitude":36.432260479999997}},{"type":"Feature","id":68,"geometry":{"type":"Point","coordinates":[101.61586340000008,34.734698760000072]},"properties":{"OBJECTID":68,"id":"8-177","time":"春秋早期","name":"镂孔波曲纹豆","location_name":"河南辉县","appearance":"波曲纹","longitude":101.61586339999999,"latitude":34.734698760000001}},{"type":"Feature","id":69,"geometry":{"type":"Point","coordinates":[101.61586340000008,34.734698760000072]},"properties":{"OBJECTID":69,"id":"8-178","time":"春秋晚期战国早期","name":"变形蟠龙纹豆","location_name":"河南辉县","appearance":"变形蟠龙纹回纹","longitude":101.61586339999999,"latitude":34.734698760000001}},{"type":"Feature","id":70,"geometry":{"type":"Point","coordinates":[113.96324220000008,35.416488850000064]},"properties":{"OBJECTID":70,"id":"8-179","time":"战国早期","name":"镶嵌绿松石云纹方豆","location_name":"河南汲县山彪镇","appearance":"云纹","longitude":113.9632422,"latitude":35.41648885}},{"type":"Feature","id":71,"geometry":{"type":"Point","coordinates":[113.9379394,37.534106690000044]},"properties":{"OBJECTID":71,"id":"8-196","time":"春秋晚期","name":"乳钉纹盖豆","location_name":"山西昔阳阎庄民安村","appearance":"乳钉纹垂叶纹","longitude":113.9379394,"latitude":37.534106690000002}},{"type":"Feature","id":72,"geometry":{"type":"Point","coordinates":[112.81335410000008,38.785297040000046]},"properties":{"OBJECTID":72,"id":"8-197","time":"战国早期","name":"几何纹盖豆","location_name":"山西原平练家岗","appearance":"乳钉几何纹垂叶纹绹索纹蟠龙纹","longitude":112.8133541,"latitude":38.785297040000003}},{"type":"Feature","id":73,"geometry":{"type":"Point","coordinates":[118.30896510000002,36.82611299000007]},"properties":{"OBJECTID":73,"id":"9月18日","time":"战国晚期","name":"国子豆","location_name":"山东临淄","appearance":"弦纹","longitude":118.30896509999999,"latitude":36.826112989999999}},{"type":"Feature","id":74,"geometry":{"type":"Point","coordinates":[116.73398340000006,36.463551320000079]},"properties":{"OBJECTID":74,"id":"9月19日","time":"春秋晚期","name":"镶嵌几何纹豆","location_name":"山东长清岗辛","appearance":"几何勾连云纹","longitude":116.7339834,"latitude":36.463551320000001}},{"type":"Feature","id":75,"geometry":{"type":"Point","coordinates":[114.70308880000005,38.397801620000052]},"properties":{"OBJECTID":75,"id":"9-113","time":"春秋晚期","name":"错红铜龙纹豆","location_name":"河北新乐中同村","appearance":"龙纹叶状纹","longitude":114.7030888,"latitude":38.397801620000003}},{"type":"Feature","id":76,"geometry":{"type":"Point","coordinates":[117.08881210000004,40.044865830000049]},"properties":{"OBJECTID":76,"id":"9-114","time":"战国早期","name":"蟠蛇纹豆","location_name":"河北三河大唐回村","appearance":"云雷纹蟠龙纹变形蝉纹三角涡纹星点蟠龙纹","longitude":117.0888121,"latitude":40.044865829999999}},{"type":"Feature","id":77,"geometry":{"type":"Point","coordinates":[116.65501200000006,40.130065320000028]},"properties":{"OBJECTID":77,"id":"9-115","time":"战国早期","name":"嵌绿松石蟠蛇纹豆","location_name":"北京顺义","appearance":"三角云纹蟠龙纹横S纹变形蛇纹","longitude":116.655012,"latitude":40.13006532}},{"type":"Feature","id":78,"geometry":{"type":"Point","coordinates":[116.65702130000011,39.909737290000066]},"properties":{"OBJECTID":78,"id":"9-116","time":"战国早期","name":"几何纹长柄豆","location_name":"北京通县中赵甫","appearance":"涡纹绹纹大三角纹宽体蟠蛇纹贝纹蝉纹变形龙纹","longitude":116.6570213,"latitude":39.909737290000002}},{"type":"Feature","id":79,"geometry":{"type":"Point","coordinates":[114.19688830000007,38.248464440000078]},"properties":{"OBJECTID":79,"id":"9-151","time":"战国中期","name":"方座豆","location_name":"河北平山","appearance":null,"longitude":114.1968883,"latitude":38.248464439999999}},{"type":"Feature","id":80,"geometry":{"type":"Point","coordinates":[114.19688830000007,38.248464440000078]},"properties":{"OBJECTID":80,"id":"9-152","time":"战国中期","name":"平盘豆","location_name":"河北平山","appearance":null,"longitude":114.1968883,"latitude":38.248464439999999}},{"type":"Feature","id":81,"geometry":{"type":"Point","coordinates":[114.19688830000007,38.248464440000078]},"properties":{"OBJECTID":81,"id":"9-153","time":"战国早期","name":"宴乐狩猎纹豆","location_name":"河北平山","appearance":"狩猎纹","longitude":114.1968883,"latitude":38.248464439999999}},{"type":"Feature","id":82,"geometry":{"type":"Point","coordinates":[115.67782080000006,32.166692170000033]},"properties":{"OBJECTID":82,"id":"10月31日","time":"春秋晚期","name":"镶嵌兽纹方豆","location_name":"河南固始侯古堆","appearance":"兽纹","longitude":115.67782080000001,"latitude":32.166692169999997}},{"type":"Feature","id":83,"geometry":{"type":"Point","coordinates":[112.48816010000007,27.697231590000058]},"properties":{"OBJECTID":83,"id":"10-32","time":"战国中期","name":"勾连云纹豆","location_name":"湖南湘乡新坳","appearance":"勾连云纹几何云纹","longitude":112.4881601,"latitude":27.697231590000001}},{"type":"Feature","id":84,"geometry":{"type":"Point","coordinates":[112.12324660000002,30.508017310000071]},"properties":{"OBJECTID":84,"id":"10-33","time":"战国中期","name":"素面方豆","location_name":"湖北江陵藤店一号墓","appearance":"凸弦纹","longitude":112.1232466,"latitude":30.50801731}},{"type":"Feature","id":85,"geometry":{"type":"Point","coordinates":[113.35523870000009,31.727031110000041]},"properties":{"OBJECTID":85,"id":"10-120","time":"战国早期","name":"曾侯乙豆","location_name":"湖北随州擂鼓墩一号墓","appearance":"鸟首龙纹联凤纹变形蟠龙纹","longitude":113.3552387,"latitude":31.727031109999999}},{"type":"Feature","id":86,"geometry":{"type":"Point","coordinates":[113.35523870000009,31.727031110000041]},"properties":{"OBJECTID":86,"id":"10-121","time":"战国早期","name":"曾侯乙豆","location_name":"湖北随州擂鼓墩一号墓","appearance":"鸟首龙纹联凤纹变形蟠龙纹","longitude":113.3552387,"latitude":31.727031109999999}},{"type":"Feature","id":87,"geometry":{"type":"Point","coordinates":[118.87762250000003,41.37564967000003]},"properties":{"OBJECTID":87,"id":"15-196","time":"西周晚期至春秋早期","name":"联体豆","location_name":"内蒙古宁城小黑石沟","appearance":null,"longitude":118.8776225,"latitude":41.375649670000001}},{"type":"Feature","id":88,"geometry":{"type":"Point","coordinates":[115.51804760000005,40.414364360000036]},"properties":{"OBJECTID":88,"id":"15-198","time":"春秋晚期战国早期","name":"乳钉纹盖豆","location_name":"河北怀来甘子堡","appearance":"云雷纹三角勾云纹蝉纹连续菱格阳纹三角勾连雷纹乳钉纹三角纹","longitude":115.5180476,"latitude":40.41436436}},{"type":"Feature","id":89,"geometry":{"type":"Point","coordinates":[112.56653960000006,38.607230980000054]},"properties":{"OBJECTID":89,"id":"8-198","time":"战国早期","name":"豆形器","location_name":"山西原平刘庄塔岗梁","appearance":"勾连雷纹云雷纹绹索纹","longitude":112.5665396,"latitude":38.607230979999997}},{"type":"Feature","id":90,"geometry":{"type":"Point","coordinates":[104.12233130000004,30.855658540000036]},"properties":{"OBJECTID":90,"id":"13-123","time":"战国","name":"豆形器","location_name":"四川新都马家乡","appearance":null,"longitude":104.1223313,"latitude":30.85565854}},{"type":"Feature","id":91,"geometry":{"type":"Point","coordinates":[118.77948970000011,41.54387317000004]},"properties":{"OBJECTID":91,"id":"15-197","time":"西周晚期至春秋早期","name":"豆形器","location_name":"内蒙古宁城南山根一零一号墓","appearance":null,"longitude":118.7794897,"latitude":41.543873169999998}},{"type":"Feature","id":92,"geometry":{"type":"Point","coordinates":[115.17096350000008,31.919063230000063]},"properties":{"OBJECTID":92,"id":"7-122","time":"春秋晚期","name":"环耳蹄足敦","location_name":"河南潢川高稻场","appearance":null,"longitude":115.1709635,"latitude":31.919063229999999}},{"type":"Feature","id":93,"geometry":{"type":"Point","coordinates":[111.24014760000006,35.317656090000071]},"properties":{"OBJECTID":93,"id":"8-44","time":"西周晚期春秋早期","name":"几何纹敦","location_name":"山西闻喜上郭村","appearance":"圃形蟠龙纹三角纹几何形云纹","longitude":111.2401476,"latitude":35.31765609}},{"type":"Feature","id":94,"geometry":{"type":"Point","coordinates":[111.24014760000006,35.317656090000071]},"properties":{"OBJECTID":94,"id":"8-45","time":"西周晚期春秋早期","name":"几何纹敦","location_name":"山西闻喜上郭村","appearance":"圃形蟠龙纹三角纹几何形云纹","longitude":111.2401476,"latitude":35.31765609}},{"type":"Feature","id":95,"geometry":{"type":"Point","coordinates":[113.64498590000005,39.643244160000052]},"properties":{"OBJECTID":95,"id":"8-46","time":"春秋晚期","name":"镶嵌兽纹敦","location_name":"山西浑源李峪村","appearance":"虎形兽纹","longitude":113.64498589999999,"latitude":39.643244160000002}},{"type":"Feature","id":96,"geometry":{"type":"Point","coordinates":[113.64498590000005,39.643244160000052]},"properties":{"OBJECTID":96,"id":"8-47","time":"春秋晚期","name":"交龙纹敦","location_name":"山西浑源李峪村","appearance":"交龙纹","longitude":113.64498589999999,"latitude":39.643244160000002}},{"type":"Feature","id":97,"geometry":{"type":"Point","coordinates":[101.61586340000008,34.734698760000072]},"properties":{"OBJECTID":97,"id":"8-180","time":"春秋晚期战国早期","name":"蟠蛇纹敦","location_name":"河南辉县","appearance":"蟠蛇纹","longitude":101.61586339999999,"latitude":34.734698760000001}},{"type":"Feature","id":98,"geometry":{"type":"Point","coordinates":[111.34925050000004,35.590348000000063]},"properties":{"OBJECTID":98,"id":"8-181","time":"战国早期","name":"敦","location_name":"山西侯马上马村墓地","appearance":null,"longitude":111.3492505,"latitude":35.590347999999999}},{"type":"Feature","id":99,"geometry":{"type":"Point","coordinates":[113.71934680000004,37.571491330000072]},"properties":{"OBJECTID":99,"id":"8-199","time":"春秋晚期战国早期","name":"弦纹敦","location_name":"山西昔阳大寨","appearance":"弦纹","longitude":113.7193468,"latitude":37.571491330000001}},{"type":"Feature","id":100,"geometry":{"type":"Point","coordinates":[118.37666720000004,36.885619890000044]},"properties":{"OBJECTID":100,"id":"9-112","time":"春秋中期","name":"人形足敦","location_name":"山东临淄齐国故城河崖头村","appearance":"谷纹交龙纹","longitude":118.3766672,"latitude":36.885619890000001}},{"type":"Feature","id":101,"geometry":{"type":"Point","coordinates":[118.34225140000001,36.868819290000033]},"properties":{"OBJECTID":101,"id":"10月26日","time":"春秋晚期","name":"乳钉纹敦","location_name":"山东临淄齐国故城褚家庄","appearance":"乳钉纹","longitude":118.34225139999999,"latitude":36.868819289999998}},{"type":"Feature","id":102,"geometry":{"type":"Point","coordinates":[118.37575820000006,36.798989630000051]},"properties":{"OBJECTID":102,"id":"13-113","time":"战国晚期","name":"奁形敦","location_name":"山东临淄齐陵镇","appearance":null,"longitude":118.37575820000001,"latitude":36.798989630000001}},{"type":"Feature","id":103,"geometry":{"type":"Point","coordinates":[119.00619640000002,35.456309990000079]},"properties":{"OBJECTID":103,"id":"9-71","time":"春秋晚期","name":"盒形敦","location_name":"山东莒县中楼乡于家沟村","appearance":"交龙纹","longitude":119.00619639999999,"latitude":35.456309990000001}},{"type":"Feature","id":104,"geometry":{"type":"Point","coordinates":[115.32183920000011,38.949576670000056]},"properties":{"OBJECTID":104,"id":"9-104","time":"战国早期","name":"环钮蛇纹高足敦","location_name":"河北满城县采石场","appearance":"斜线绳纹蟠蛇纹几何形纹","longitude":115.3218392,"latitude":38.949576669999999}},{"type":"Feature","id":105,"geometry":{"type":"Point","coordinates":[116.65702130000011,39.909737290000066]},"properties":{"OBJECTID":105,"id":"9-105","time":"战国早期","name":"鸟钮蛇纹高足敦","location_name":"北京通县中赵甫","appearance":"蟠蛇纹垂叶纹","longitude":116.6570213,"latitude":39.909737290000002}},{"type":"Feature","id":106,"geometry":{"type":"Point","coordinates":[114.59059940000009,40.328032500000063]},"properties":{"OBJECTID":106,"id":"9-106","time":"战国早期","name":"鸟钮雷纹高足敦","location_name":"河北阳原九沟村","appearance":"变形云纹绹纹雷纹","longitude":114.5905994,"latitude":40.328032499999999}},{"type":"Feature","id":107,"geometry":{"type":"Point","coordinates":[117.07268430000011,40.049143230000027]},"properties":{"OBJECTID":107,"id":"9-107","time":"战国早期","name":"鸟钮兽纹高足敦","location_name":"河北三河双村","appearance":"兽纹","longitude":117.07268430000001,"latitude":40.049143229999999}},{"type":"Feature","id":108,"geometry":{"type":"Point","coordinates":[117.07268430000011,40.049143230000027]},"properties":{"OBJECTID":108,"id":"9-108","time":"战国早期","name":"鸟钮兽纹高足敦","location_name":"河北三河双村","appearance":"兽纹","longitude":117.07268430000001,"latitude":40.049143229999999}},{"type":"Feature","id":109,"geometry":{"type":"Point","coordinates":[118.60659300000009,39.774251990000039]},"properties":{"OBJECTID":109,"id":"9-109","time":"战国早期","name":"变形蟠龙纹敦","location_name":"河北唐山贾各庄","appearance":"变形蟠龙纹三角纹","longitude":118.606593,"latitude":39.774251990000003}},{"type":"Feature","id":110,"geometry":{"type":"Point","coordinates":[116.65702130000011,39.909737290000066]},"properties":{"OBJECTID":110,"id":"9-110","time":"战国早期","name":"变形蟠龙纹敦","location_name":"北京通县中赵甫","appearance":"涡纹变形蟠龙纹大三角纹","longitude":116.6570213,"latitude":39.909737290000002}},{"type":"Feature","id":111,"geometry":{"type":"Point","coordinates":[115.57858480000004,40.786200680000036]},"properties":{"OBJECTID":111,"id":"9-111","time":"战国早期","name":"勾连雷纹敦","location_name":"河北赤城龙关镇","appearance":"涡纹勾连雷纹粟纹龙纹卷草纹","longitude":115.5785848,"latitude":40.78620068}},{"type":"Feature","id":112,"geometry":{"type":"Point","coordinates":[115.67377990000011,40.374864660000071]},"properties":{"OBJECTID":112,"id":"9-112","time":"战国晚期","name":"人形足敦","location_name":"河北怀来狼山","appearance":"弦纹","longitude":115.6737799,"latitude":40.37486466}},{"type":"Feature","id":113,"geometry":{"type":"Point","coordinates":[111.49100420000008,33.137884930000041]},"properties":{"OBJECTID":113,"id":"10月26日","time":"春秋晚期","name":"变形蟠蛇纹敦","location_name":"河南淅川下寺十号墓","appearance":"火纹交龙纹几何纹绹纹S形变形蟠蛇纹","longitude":111.49100420000001,"latitude":33.137884929999998}},{"type":"Feature","id":114,"geometry":{"type":"Point","coordinates":[110.91382550000009,31.197378230000027]},"properties":{"OBJECTID":114,"id":"10月27日","time":"战国早期","name":"镶嵌云纹敦","location_name":"湖北秭归树坪斑鸠窝","appearance":"涡云纹几何云纹","longitude":110.9138255,"latitude":31.197378230000002}},{"type":"Feature","id":115,"geometry":{"type":"Point","coordinates":[104.12233130000004,30.855658540000036]},"properties":{"OBJECTID":115,"id":"13-113","time":"战国","name":"敦","location_name":"四川新都马家乡","appearance":null,"longitude":104.1223313,"latitude":30.85565854}},{"type":"Feature","id":116,"geometry":{"type":"Point","coordinates":[107.35589260000006,34.500451860000055]},"properties":{"OBJECTID":116,"id":"7-53","time":"春秋早期","name":"卷龙纹铎","location_name":"陕西凤翔大辛村","appearance":"云纹卷龙纹","longitude":107.3558926,"latitude":34.500451859999998}},{"type":"Feature","id":117,"geometry":{"type":"Point","coordinates":[113.73951060000002,31.039257030000044]},"properties":{"OBJECTID":117,"id":"12月9日","time":"秦","name":"鸟钮钫","location_name":"湖北云梦睡虎地","appearance":null,"longitude":113.7395106,"latitude":31.039257030000002}},{"type":"Feature","id":118,"geometry":{"type":"Point","coordinates":[108.92768210000008,34.224682180000059]},"properties":{"OBJECTID":118,"id":"12-48","time":"西汉晚期","name":"错金勾连云纹钫","location_name":"陕西西安","appearance":"勾连云纹","longitude":108.9276821,"latitude":34.224682180000002}},{"type":"Feature","id":119,"geometry":{"type":"Point","coordinates":[108.92768210000008,34.224682180000059]},"properties":{"OBJECTID":119,"id":"12-49","time":"西汉晚期","name":"错金勾连云纹钫","location_name":"陕西西安","appearance":"勾连云纹","longitude":108.9276821,"latitude":34.224682180000002}},{"type":"Feature","id":120,"geometry":{"type":"Point","coordinates":[113.26031280000007,23.138432030000047]},"properties":{"OBJECTID":120,"id":"12-50","time":"西汉中期","name":"变形蟠龙纹钫","location_name":"广东广州象岗","appearance":"变形蟠龙纹三角云纹斜角云纹","longitude":113.26031279999999,"latitude":23.138432030000001}},{"type":"Feature","id":121,"geometry":{"type":"Point","coordinates":[113.26031280000007,23.138432030000047]},"properties":{"OBJECTID":121,"id":"12-51","time":"西汉中期","name":"变形蟠龙纹钫","location_name":"广东广州象岗","appearance":"变形蟠龙纹三角云纹斜角云纹","longitude":113.26031279999999,"latitude":23.138432030000001}},{"type":"Feature","id":122,"geometry":{"type":"Point","coordinates":[118.57596410000008,31.13513910000006]},"properties":{"OBJECTID":122,"id":"12-52","time":"西汉早期","name":"变形蟠龙纹钫","location_name":"安徽芜湖贺家园","appearance":"三角形纹变形蟠龙纹","longitude":118.57596409999999,"latitude":31.1351391}},{"type":"Feature","id":123,"geometry":{"type":"Point","coordinates":[108.83055150000007,34.276913380000053]},"properties":{"OBJECTID":123,"id":"12-53","time":"西汉中期","name":"初元三年东阿宫钫","location_name":"陕西西安高窑村","appearance":null,"longitude":108.8305515,"latitude":34.276913380000003}},{"type":"Feature","id":124,"geometry":{"type":"Point","coordinates":[116.77465700000005,32.576522630000056]},"properties":{"OBJECTID":124,"id":"7-71","time":"春秋晚期","name":"蔡侯盥缶","location_name":"安徽寿县蔡侯墓","appearance":"火纹交龙纹兽纹","longitude":116.774657,"latitude":32.576522629999999}},{"type":"Feature","id":125,"geometry":{"type":"Point","coordinates":[116.77465700000005,32.576522630000056]},"properties":{"OBJECTID":125,"id":"7-72","time":"春秋晚期","name":"蔡侯方尊缶","location_name":"安徽寿县蔡侯墓","appearance":"花纹","longitude":116.774657,"latitude":32.576522629999999}},{"type":"Feature","id":126,"geometry":{"type":"Point","coordinates":[112.25812360000009,31.719360680000079]},"properties":{"OBJECTID":126,"id":"7-73","time":"春秋晚期","name":"蔡侯朱缶","location_name":"湖北宜城安乐坨","appearance":"弦纹","longitude":112.2581236,"latitude":31.719360680000001}},{"type":"Feature","id":127,"geometry":{"type":"Point","coordinates":[101.61586340000008,34.734698760000072]},"properties":{"OBJECTID":127,"id":"8-182","time":"春秋晚期战国早期","name":"龙耳缶","location_name":"河南辉县","appearance":"绳络纹圆圈纹","longitude":101.61586339999999,"latitude":34.734698760000001}},{"type":"Feature","id":128,"geometry":{"type":"Point","coordinates":[111.49100420000008,33.137884930000041]},"properties":{"OBJECTID":128,"id":"10-45","time":"春秋晚期","name":"*子倗尊缶","location_name":"河南淅川下寺二号墓","appearance":"蟠蛇纹","longitude":111.49100420000001,"latitude":33.137884929999998}},{"type":"Feature","id":129,"geometry":{"type":"Point","coordinates":[111.49100420000008,33.137884930000041]},"properties":{"OBJECTID":129,"id":"10-46","time":"春秋晚期","name":"倗尊缶","location_name":"河南淅川下寺一号墓","appearance":"交龙纹","longitude":111.49100420000001,"latitude":33.137884929999998}},{"type":"Feature","id":130,"geometry":{"type":"Point","coordinates":[111.68028680000003,30.970917960000065]},"properties":{"OBJECTID":130,"id":"10-47","time":"战国早期","name":"镶嵌云纹缶","location_name":"湖北当阳季家湖楚墓","appearance":"卷云纹蟠蛇纹","longitude":111.6802868,"latitude":30.970917960000001}},{"type":"Feature","id":131,"geometry":{"type":"Point","coordinates":[112.37019520000001,28.572779780000076]},"properties":{"OBJECTID":131,"id":"10-48","time":"战国中期","name":"羽翅纹尊缶","location_name":"湖南益阳赫山庙","appearance":"羽翅纹","longitude":112.3701952,"latitude":28.572779780000001}},{"type":"Feature","id":132,"geometry":{"type":"Point","coordinates":[112.37019520000001,28.572779780000076]},"properties":{"OBJECTID":132,"id":"10-49","time":"战国中期","name":"羽翅纹尊缶","location_name":"湖南益阳赫山庙","appearance":"羽翅纹","longitude":112.3701952,"latitude":28.572779780000001}},{"type":"Feature","id":133,"geometry":{"type":"Point","coordinates":[111.49100420000008,33.137884930000041]},"properties":{"OBJECTID":133,"id":"10-64","time":"春秋晚期","name":"*子倗浴缶","location_name":"河南淅川下寺二号墓","appearance":"火纹龙纹交龙纹","longitude":111.49100420000001,"latitude":33.137884929999998}},{"type":"Feature","id":134,"geometry":{"type":"Point","coordinates":[111.49100420000008,33.137884930000041]},"properties":{"OBJECTID":134,"id":"10-65","time":"春秋晚期","name":"倗盥缶","location_name":"河南淅川下寺三号墓","appearance":"火纹蟠龙纹交龙纹","longitude":111.49100420000001,"latitude":33.137884929999998}},{"type":"Feature","id":135,"geometry":{"type":"Point","coordinates":[111.49100420000008,33.137884930000041]},"properties":{"OBJECTID":135,"id":"10-66","time":"春秋中期","name":"交龙纹盥缶","location_name":"河南淅川下寺七号墓","appearance":"变形交龙纹三角形几何纹","longitude":111.49100420000001,"latitude":33.137884929999998}},{"type":"Feature","id":136,"geometry":{"type":"Point","coordinates":[117.08811800000001,36.199518700000056]},"properties":{"OBJECTID":136,"id":"10-67","time":"战国晚期","name":"楚高盥缶","location_name":"山东泰安","appearance":"变形交龙纹","longitude":117.08811799999999,"latitude":36.199518699999999}},{"type":"Feature","id":137,"geometry":{"type":"Point","coordinates":[112.83825100000001,23.64543838000003]},"properties":{"OBJECTID":137,"id":"10-68","time":"战国中期","name":"蟠蛇纹盥缶","location_name":"广东清远马头岗墓葬","appearance":"蟠蛇纹绳纹三角纹","longitude":112.838251,"latitude":23.645438380000002}},{"type":"Feature","id":138,"geometry":{"type":"Point","coordinates":[112.46096810000006,30.411650830000042]},"properties":{"OBJECTID":138,"id":"10-69","time":"战国晚期","name":"羽翅纹盥缶","location_name":"湖北江陵天星观一号墓","appearance":"羽翅纹","longitude":112.4609681,"latitude":30.411650829999999}},{"type":"Feature","id":139,"geometry":{"type":"Point","coordinates":[113.35523870000009,31.727031110000041]},"properties":{"OBJECTID":139,"id":"10-130","time":"战国早期","name":"曾侯乙鉴缶","location_name":"湖北随州擂鼓墩一号墓","appearance":"变形蟠龙纹盘龙纹勾连云纹蟠龙纹蕉叶纹","longitude":113.3552387,"latitude":31.727031109999999}},{"type":"Feature","id":140,"geometry":{"type":"Point","coordinates":[113.35523870000009,31.727031110000041]},"properties":{"OBJECTID":140,"id":"10-131","time":"战国早期","name":"曾侯乙鉴缶","location_name":"湖北随州擂鼓墩一号墓","appearance":"变形蟠龙纹盘龙纹勾连云纹蟠龙纹蕉叶纹","longitude":113.3552387,"latitude":31.727031109999999}},{"type":"Feature","id":141,"geometry":{"type":"Point","coordinates":[113.35523870000009,31.727031110000041]},"properties":{"OBJECTID":141,"id":"10-132","time":"战国早期","name":"曾侯乙鉴缶","location_name":"湖北随州擂鼓墩一号墓","appearance":"变形蟠龙纹盘龙纹勾连云纹蟠龙纹蕉叶纹","longitude":113.3552387,"latitude":31.727031109999999}},{"type":"Feature","id":142,"geometry":{"type":"Point","coordinates":[113.35523870000009,31.727031110000041]},"properties":{"OBJECTID":142,"id":"10-133","time":"战国早期","name":"曾侯乙鉴缶","location_name":"湖北随州擂鼓墩一号墓","appearance":"变形蟠龙纹盘龙纹勾连云纹蟠龙纹蕉叶纹","longitude":113.3552387,"latitude":31.727031109999999}},{"type":"Feature","id":143,"geometry":{"type":"Point","coordinates":[113.35523870000009,31.727031110000041]},"properties":{"OBJECTID":143,"id":"10-134","time":"战国早期","name":"曾侯乙大尊缶","location_name":"湖北随州擂鼓墩一号墓","appearance":"圆涡纹重环纹蟠蛇纹绹纹雷纹变体蟠龙纹垂叶纹粗线纹","longitude":113.3552387,"latitude":31.727031109999999}},{"type":"Feature","id":144,"geometry":{"type":"Point","coordinates":[113.35523870000009,31.727031110000041]},"properties":{"OBJECTID":144,"id":"10-135","time":"战国早期","name":"曾侯乙大尊缶","location_name":"湖北随州擂鼓墩一号墓","appearance":"圆涡纹重环纹蟠蛇纹绹纹雷纹变体蟠龙纹垂叶纹粗线纹","longitude":113.3552387,"latitude":31.727031109999999}},{"type":"Feature","id":145,"geometry":{"type":"Point","coordinates":[113.35523870000009,31.727031110000041]},"properties":{"OBJECTID":145,"id":"10-136","time":"战国早期","name":"曾侯乙盥缶","location_name":"湖北随州擂鼓墩一号墓","appearance":"涡纹勾连云纹变形龙纹三角云纹","longitude":113.3552387,"latitude":31.727031109999999}},{"type":"Feature","id":146,"geometry":{"type":"Point","coordinates":[119.63918790000002,32.177351960000067]},"properties":{"OBJECTID":146,"id":"11-32","time":"春秋晚期","name":"蟠蛇纹缶","location_name":"江苏丹徒大港北山顶","appearance":"蟠蛇纹绳索纹","longitude":119.6391879,"latitude":32.177351960000003}},{"type":"Feature","id":147,"geometry":{"type":"Point","coordinates":[115.67782080000006,32.166692170000033]},"properties":{"OBJECTID":147,"id":"11-40","time":"春秋晚期","name":"镶嵌兽纹盥缶","location_name":"河南固始侯古堆","appearance":"圆形火纹兽纹几何纹","longitude":115.67782080000001,"latitude":32.166692169999997}},{"type":"Feature","id":148,"geometry":{"type":"Point","coordinates":[112.37952880000012,27.730611390000035]},"properties":{"OBJECTID":148,"id":"11-127","time":"春秋晚期","name":"蟠蛇纹盥缶","location_name":"湖南湘乡大茅坪","appearance":"蟠蛇纹三角纹圆形火纹","longitude":112.3795288,"latitude":27.73061139}},{"type":"Feature","id":149,"geometry":{"type":"Point","coordinates":[109.21390150000008,34.366814090000048]},"properties":{"OBJECTID":149,"id":"11月10日","time":"秦","name":"麓山园缶","location_name":"陕西临潼","appearance":null,"longitude":109.21390150000001,"latitude":34.366814089999998}},{"type":"Feature","id":150,"geometry":{"type":"Point","coordinates":[104.12233130000004,30.855658540000036]},"properties":{"OBJECTID":150,"id":"13-111","time":"战国","name":"蟠螭纹缶","location_name":"四川新都马家乡","appearance":"圆圈纹变体蟠螭纹","longitude":104.1223313,"latitude":30.85565854}},{"type":"Feature","id":151,"geometry":{"type":"Point","coordinates":[116.99519440000006,35.61158357000005]},"properties":{"OBJECTID":151,"id":"9-51","time":"春秋中期","name":"鲁大司徒?","location_name":"山东曲阜林前村","appearance":"蟠蛇纹","longitude":116.9951944,"latitude":35.611583570000001}},{"type":"Feature","id":152,"geometry":{"type":"Point","coordinates":[114.33698350000009,36.113357830000041]},"properties":{"OBJECTID":152,"id":"2-80","time":"商代晚期","name":"兽面纹釜","location_name":"河南安阳高楼庄","appearance":"兽面纹三角纹","longitude":114.3369835,"latitude":36.113357829999998}},{"type":"Feature","id":153,"geometry":{"type":"Point","coordinates":[114.33698350000009,36.113357830000041]},"properties":{"OBJECTID":153,"id":"2-81","time":"商代晚期","name":"兽面纹釜","location_name":"河南安阳高楼庄","appearance":"兽面纹三角纹","longitude":114.3369835,"latitude":36.113357829999998}},{"type":"Feature","id":154,"geometry":{"type":"Point","coordinates":[120.15067490000001,35.930566910000039]},"properties":{"OBJECTID":154,"id":"9-43","time":"战国早期","name":"陈纯釜","location_name":"山东胶县灵山卫古城","appearance":null,"longitude":120.1506749,"latitude":35.930566910000003}},{"type":"Feature","id":155,"geometry":{"type":"Point","coordinates":[120.15067490000001,35.930566910000039]},"properties":{"OBJECTID":155,"id":"9-44","time":"战国早期","name":"子禾子釜","location_name":"山东胶县灵山卫古城","appearance":null,"longitude":120.1506749,"latitude":35.930566910000003}},{"type":"Feature","id":156,"geometry":{"type":"Point","coordinates":[115.29469800000004,38.948193840000044]},"properties":{"OBJECTID":156,"id":"12-32","time":"西汉中期","name":"釜","location_name":"河北满城陵山中山靖王刘胜墓","appearance":null,"longitude":115.294698,"latitude":38.948193840000002}},{"type":"Feature","id":157,"geometry":{"type":"Point","coordinates":[104.12233130000004,30.855658540000036]},"properties":{"OBJECTID":157,"id":"13-117","time":"战国","name":"双耳釜","location_name":"四川新都马家乡","appearance":null,"longitude":104.1223313,"latitude":30.85565854}},{"type":"Feature","id":158,"geometry":{"type":"Point","coordinates":[107.86552220000004,34.493886580000037]},"properties":{"OBJECTID":158,"id":"5-83","time":"西周晚期","name":"伯公父簠","location_name":"陕西扶风云塘村西周窖藏","appearance":"并列式鳞波曲纹连续式鳞纹","longitude":107.8655222,"latitude":34.493886580000002}},{"type":"Feature","id":159,"geometry":{"type":"Point","coordinates":[116.60245160000011,36.218002220000074]},"properties":{"OBJECTID":159,"id":"6-97","time":"西周晚期","name":"龙耳簠","location_name":"山东肥城小王庄","appearance":"象首纹兽体卷曲纹","longitude":116.60245159999999,"latitude":36.218002220000002}},{"type":"Feature","id":160,"geometry":{"type":"Point","coordinates":[115.17096350000008,31.919063230000063]},"properties":{"OBJECTID":160,"id":"7-66","time":"春秋晚期","name":"蔡公子义工簠","location_name":"河南潢川高稻场","appearance":"蟠蛇纹","longitude":115.1709635,"latitude":31.919063229999999}},{"type":"Feature","id":161,"geometry":{"type":"Point","coordinates":[114.12140430000011,32.108097410000028]},"properties":{"OBJECTID":161,"id":"7-108","time":"春秋早期","name":"卷龙纹簠","location_name":"河南信阳平西","appearance":"卷龙纹横条纹鳞纹","longitude":114.12140429999999,"latitude":32.108097409999999}},{"type":"Feature","id":162,"geometry":{"type":"Point","coordinates":[115.67782080000006,32.166692170000033]},"properties":{"OBJECTID":162,"id":"7-128","time":"春秋晚期","name":"宋公?簠","location_name":"河南固始侯古堆大墓","appearance":null,"longitude":115.67782080000001,"latitude":32.166692169999997}},{"type":"Feature","id":163,"geometry":{"type":"Point","coordinates":[112.48956580000004,37.775186750000046]},"properties":{"OBJECTID":163,"id":"8-34","time":"春秋晚期","name":"蟠蛇纹簠","location_name":"山西太原金胜村","appearance":"C形蟠蛇纹","longitude":112.48956579999999,"latitude":37.775186750000003}},{"type":"Feature","id":164,"geometry":{"type":"Point","coordinates":[112.48956580000004,37.775186750000046]},"properties":{"OBJECTID":164,"id":"8-35","time":"春秋晚期","name":"蟠蛇纹簠","location_name":"山西太原金胜村","appearance":"C形蟠蛇纹","longitude":112.48956579999999,"latitude":37.775186750000003}},{"type":"Feature","id":165,"geometry":{"type":"Point","coordinates":[117.16618240000003,35.113689880000038]},"properties":{"OBJECTID":165,"id":"9-82","time":"春秋早期","name":"薛子仲安簠","location_name":"山东滕县官桥公社","appearance":"云雷纹兽体卷曲纹","longitude":117.1661824,"latitude":35.113689880000003}},{"type":"Feature","id":166,"geometry":{"type":"Point","coordinates":[114.19688830000007,38.248464440000078]},"properties":{"OBJECTID":166,"id":"9-150","time":"战国中期","name":"环钮簠","location_name":"河北平山","appearance":null,"longitude":114.1968883,"latitude":38.248464439999999}},{"type":"Feature","id":167,"geometry":{"type":"Point","coordinates":[112.52159780000011,32.998305900000048]},"properties":{"OBJECTID":167,"id":"10月22日","time":"春秋","name":"彭宇簠","location_name":"河南南阳西关煤厂","appearance":"乳钉蟠蛇纹重鳞纹","longitude":112.5215978,"latitude":32.998305899999998}},{"type":"Feature","id":168,"geometry":{"type":"Point","coordinates":[112.12957370000004,32.121246390000067]},"properties":{"OBJECTID":168,"id":"10月23日","time":"春秋晚期","name":"子季嬴青簠","location_name":"湖北襄阳山湾","appearance":"交龙纹变形交龙纹","longitude":112.12957369999999,"latitude":32.121246390000003}},{"type":"Feature","id":169,"geometry":{"type":"Point","coordinates":[111.49100420000008,33.137884930000041]},"properties":{"OBJECTID":169,"id":"10月24日","time":"春秋中期","name":"何次簠","location_name":"河南淅川下寺八号墓","appearance":"蟠蛇纹","longitude":111.49100420000001,"latitude":33.137884929999998}},{"type":"Feature","id":170,"geometry":{"type":"Point","coordinates":[112.07365190000007,32.671800210000072]},"properties":{"OBJECTID":170,"id":"10月25日","time":"春秋晚期","name":"弃疾簠","location_name":"河南南阳汽车发动机厂","appearance":"蟠蛇纹","longitude":112.0736519,"latitude":32.671800210000001}},{"type":"Feature","id":171,"geometry":{"type":"Point","coordinates":[113.35523870000009,31.727031110000041]},"properties":{"OBJECTID":171,"id":"10-119","time":"战国早期","name":"曾侯乙簠","location_name":"湖北随州擂鼓墩一号墓","appearance":"勾连云纹蟠龙纹","longitude":113.3552387,"latitude":31.727031109999999}},{"type":"Feature","id":172,"geometry":{"type":"Point","coordinates":[113.86246410000001,34.537894450000067]},"properties":{"OBJECTID":172,"id":"1-48","time":"商早期","name":"×文鬲","location_name":"河南郑州杨庄","appearance":"弦纹×纹人字形纹","longitude":113.8624641,"latitude":34.537894450000003}},{"type":"Feature","id":173,"geometry":{"type":"Point","coordinates":[113.86246410000001,34.537894450000067]},"properties":{"OBJECTID":173,"id":"1-49","time":"商早期","name":"人字纹鬲","location_name":"河南郑州杨庄","appearance":"双线人字纹弦纹人字纹","longitude":113.8624641,"latitude":34.537894450000003}},{"type":"Feature","id":174,"geometry":{"type":"Point","coordinates":[113.66963540000006,34.759498220000069]},"properties":{"OBJECTID":174,"id":"1-50","time":"商早期","name":"人字纹鬲","location_name":"河南郑州张寨南街","appearance":"弦纹双线人字纹","longitude":113.6696354,"latitude":34.759498219999998}},{"type":"Feature","id":175,"geometry":{"type":"Point","coordinates":[113.81432290000009,35.453704990000062]},"properties":{"OBJECTID":175,"id":"1-52","time":"商早期","name":"兽面纹鬲","location_name":"河南辉县琉璃阁","appearance":"兽面纹双线人字纹","longitude":113.81432289999999,"latitude":35.453704989999999}},{"type":"Feature","id":176,"geometry":{"type":"Point","coordinates":[107.25595690000006,33.172845360000053]},"properties":{"OBJECTID":176,"id":"1-54","time":"商早期","name":"弦纹鬲","location_name":"陕西城固龙头镇","appearance":"弦纹人字纹","longitude":107.2559569,"latitude":33.172845359999997}},{"type":"Feature","id":177,"geometry":{"type":"Point","coordinates":[107.82908840000005,34.489505050000048]},"properties":{"OBJECTID":177,"id":"1-55","time":"商中期","name":"云雷纹鬲","location_name":"陕西岐山京当","appearance":"云雷纹联珠纹双线人字纹","longitude":107.8290884,"latitude":34.489505049999998}},{"type":"Feature","id":178,"geometry":{"type":"Point","coordinates":[113.53313580000008,34.754771940000069]},"properties":{"OBJECTID":178,"id":"1-56","time":"商中期","name":"双纹鬲","location_name":"河南郑州白家庄","appearance":"夔纹联珠纹双线人字纹","longitude":113.5331358,"latitude":34.754771939999998}},{"type":"Feature","id":179,"geometry":{"type":"Point","coordinates":[111.48447020000009,36.403021810000041]},"properties":{"OBJECTID":179,"id":"1-58","time":"商中期","name":"兽面纹鬲","location_name":"山西洪洞上村","appearance":"兽面纹","longitude":111.4844702,"latitude":36.403021809999998}},{"type":"Feature","id":180,"geometry":{"type":"Point","coordinates":[107.25595690000006,33.172845360000053]},"properties":{"OBJECTID":180,"id":"1-60","time":"商中期","name":"兽面纹四足鬲","location_name":"陕西城固龙头镇","appearance":"雷纹兽面纹","longitude":107.2559569,"latitude":33.172845359999997}},{"type":"Feature","id":181,"geometry":{"type":"Point","coordinates":[114.22247390000007,36.171094810000056]},"properties":{"OBJECTID":181,"id":"2-67","time":"商代晚期","name":"作册兄鬲","location_name":"河南安阳郭家庄西50号墓","appearance":"龙纹联珠纹兽面纹","longitude":114.2224739,"latitude":36.17109481}},{"type":"Feature","id":182,"geometry":{"type":"Point","coordinates":[114.22247390000007,36.171094810000056]},"properties":{"OBJECTID":182,"id":"2-68","time":"商代晚期","name":"作册兄鬲","location_name":"河南安阳郭家庄西50号墓","appearance":"龙纹联珠纹兽面纹","longitude":114.2224739,"latitude":36.17109481}},{"type":"Feature","id":183,"geometry":{"type":"Point","coordinates":[114.29747570000006,36.125625240000034]},"properties":{"OBJECTID":183,"id":"2-69","time":"商代晚期","name":"父丁鬲","location_name":"河南安阳孝民屯南1102号墓","appearance":"云雷纹兽面纹","longitude":114.29747570000001,"latitude":36.125625239999998}},{"type":"Feature","id":184,"geometry":{"type":"Point","coordinates":[114.23179260000006,36.213254360000064]},"properties":{"OBJECTID":184,"id":"2-71","time":"商代晚期","name":"兽面纹鬲","location_name":"河南安阳","appearance":"目纹兽面纹","longitude":114.23179260000001,"latitude":36.213254360000001}},{"type":"Feature","id":185,"geometry":{"type":"Point","coordinates":[114.23179260000006,36.213254360000064]},"properties":{"OBJECTID":185,"id":"2-72","time":"商代晚期","name":"兽面纹鬲","location_name":"河南安阳","appearance":"兽面纹龙纹","longitude":114.23179260000001,"latitude":36.213254360000001}},{"type":"Feature","id":186,"geometry":{"type":"Point","coordinates":[115.59602300000006,32.657647930000053]},"properties":{"OBJECTID":186,"id":"4月25日","time":"商代晚期","name":"兽面纹鬲","location_name":"安徽阜南","appearance":"兽骨目纹兽面纹","longitude":115.596023,"latitude":32.657647930000003}},{"type":"Feature","id":187,"geometry":{"type":"Point","coordinates":[112.3890057000001,34.181191900000044]},"properties":{"OBJECTID":187,"id":"5-42","time":"西周中期","name":"斜条纹鬲","location_name":"河南洛阳北窑机瓦厂西周墓","appearance":"斜条纹","longitude":112.3890057,"latitude":34.181191900000002}},{"type":"Feature","id":188,"geometry":{"type":"Point","coordinates":[107.89984550000008,34.375785030000031]},"properties":{"OBJECTID":188,"id":"5-44","time":"西周晚期","name":"伯邦父鬲","location_name":"陕西扶风齐家村西周窖藏","appearance":"波曲纹","longitude":107.8998455,"latitude":34.375785030000003}},{"type":"Feature","id":189,"geometry":{"type":"Point","coordinates":[116.03161670000009,39.602139980000061]},"properties":{"OBJECTID":189,"id":"6月9日","time":"西周早期","name":"伯矩鬲","location_name":"北京琉璃河251号墓","appearance":"龙纹","longitude":116.0316167,"latitude":39.602139979999997}},{"type":"Feature","id":190,"geometry":{"type":"Point","coordinates":[117.18112360000009,35.440475510000056]},"properties":{"OBJECTID":190,"id":"6-65","time":"西周晚期","name":"鲁宰驷父鬲","location_name":"山东邹城东部田黄乡栖驾峪村","appearance":"兽面纹","longitude":117.18112360000001,"latitude":35.440475509999999}},{"type":"Feature","id":191,"geometry":{"type":"Point","coordinates":[117.06273700000008,35.053255800000045]},"properties":{"OBJECTID":191,"id":"6-77","time":"西周早期","name":"滕公鬲","location_name":"山东滕州庄里西村","appearance":"弦纹兽面纹","longitude":117.062737,"latitude":35.053255800000002}},{"type":"Feature","id":192,"geometry":{"type":"Point","coordinates":[111.21072300000009,34.785577550000028]},"properties":{"OBJECTID":192,"id":"7月1日","time":"春秋早期","name":"素面鬲","location_name":"河南三门峡上村岭虢国墓地","appearance":null,"longitude":111.210723,"latitude":34.785577549999999}},{"type":"Feature","id":193,"geometry":{"type":"Point","coordinates":[101.61586340000008,34.734698760000072]},"properties":{"OBJECTID":193,"id":"7-106","time":"春秋早期","name":"鳞纹鬲","location_name":"河南信阳平西","appearance":"鳞纹","longitude":101.61586339999999,"latitude":34.734698760000001}},{"type":"Feature","id":194,"geometry":{"type":"Point","coordinates":[111.21072300000009,34.785577550000028]},"properties":{"OBJECTID":194,"id":"7月2日","time":"西周晚期至春秋早期","name":"虢季鬲","location_name":"河南三门峡上村岭虢国墓地","appearance":"象鼻纹兽面纹","longitude":111.210723,"latitude":34.785577549999999}},{"type":"Feature","id":195,"geometry":{"type":"Point","coordinates":[111.21072300000009,34.785577550000028]},"properties":{"OBJECTID":195,"id":"7月3日","time":"西周晚期至春秋早期","name":"象首纹鬲","location_name":"河南三门峡上村岭虢国墓地","appearance":"象首纹","longitude":111.210723,"latitude":34.785577549999999}},{"type":"Feature","id":196,"geometry":{"type":"Point","coordinates":[111.21072300000009,34.785577550000028]},"properties":{"OBJECTID":196,"id":"7月4日","time":"西周晚期至春秋早期","name":"象首纹鬲","location_name":"河南三门峡上村岭虢国墓地","appearance":"象首纹","longitude":111.210723,"latitude":34.785577549999999}},{"type":"Feature","id":197,"geometry":{"type":"Point","coordinates":[114.90021830000001,32.011303220000059]},"properties":{"OBJECTID":197,"id":"7-80","time":"春秋早期","name":"黄夫厶鬲","location_name":"河南光山宝相寺","appearance":"兽骨卷曲纹","longitude":114.90021830000001,"latitude":32.011303220000002}},{"type":"Feature","id":198,"geometry":{"type":"Point","coordinates":[114.90021830000001,32.011303220000059]},"properties":{"OBJECTID":198,"id":"7-81","time":"春秋早期","name":"黄夫人鬲","location_name":"河南光山宝相寺","appearance":"龙纹","longitude":114.90021830000001,"latitude":32.011303220000002}},{"type":"Feature","id":199,"geometry":{"type":"Point","coordinates":[112.48956580000004,37.775186750000046]},"properties":{"OBJECTID":199,"id":"8月28日","time":"春秋晚期","name":"蟠龙纹鬲","location_name":"山西太原金胜村","appearance":"蟠龙纹云纹三角回纹","longitude":112.48956579999999,"latitude":37.775186750000003}},{"type":"Feature","id":200,"geometry":{"type":"Point","coordinates":[118.31726090000006,36.413428660000079]},"properties":{"OBJECTID":200,"id":"9月8日","time":"春秋早期","name":"齐趫父鬲","location_name":"山东临朐泉头村二号墓","appearance":"象首纹","longitude":118.31726089999999,"latitude":36.413428660000001}},{"type":"Feature","id":201,"geometry":{"type":"Point","coordinates":[117.16618240000003,35.113689880000038]},"properties":{"OBJECTID":201,"id":"9-50","time":"春秋早期","name":"鲁伯愈父鬲","location_name":"山东滕县","appearance":"俯首卷体龙纹","longitude":117.1661824,"latitude":35.113689880000003}},{"type":"Feature","id":202,"geometry":{"type":"Point","coordinates":[118.46131060000005,35.695185630000026]},"properties":{"OBJECTID":202,"id":"9-69","time":"春秋中期","name":"变形兽体纹鬲","location_name":"山东沂水刘家店子","appearance":"兽目交连纹变形兽体纹","longitude":118.4613106,"latitude":35.695185629999997}},{"type":"Feature","id":203,"geometry":{"type":"Point","coordinates":[114.19688830000007,38.248464440000078]},"properties":{"OBJECTID":203,"id":"9-148","time":"战国中期","name":"*鬲","location_name":"河北平山","appearance":null,"longitude":114.1968883,"latitude":38.248464439999999}},{"type":"Feature","id":204,"geometry":{"type":"Point","coordinates":[113.35523870000009,31.727031110000041]},"properties":{"OBJECTID":204,"id":"10-116","time":"战国早期","name":"曾侯乙鬲","location_name":"湖北随州擂鼓墩一号墓","appearance":"鸟首龙纹云纹","longitude":113.3552387,"latitude":31.727031109999999}},{"type":"Feature","id":205,"geometry":{"type":"Point","coordinates":[111.52780320000005,32.775104370000065]},"properties":{"OBJECTID":205,"id":"10月14日","time":"春秋晚期","name":"蟠龙纹鬲","location_name":"河南淅川下寺一号墓","appearance":"蟠龙纹","longitude":111.52780319999999,"latitude":32.775104370000001}},{"type":"Feature","id":206,"geometry":{"type":"Point","coordinates":[113.35523870000009,31.727031110000041]},"properties":{"OBJECTID":206,"id":"10月15日","time":"春秋晚期","name":"绳纹鬲","location_name":"湖北随州擂鼓墩一号墓","appearance":"粗绳纹","longitude":113.3552387,"latitude":31.727031109999999}},{"type":"Feature","id":207,"geometry":{"type":"Point","coordinates":[111.52780320000005,32.775104370000065]},"properties":{"OBJECTID":207,"id":"10月16日","time":"春秋晚期","name":"交龙纹鬲","location_name":"河南淅川下寺二号墓","appearance":"交龙纹","longitude":111.52780319999999,"latitude":32.775104370000001}},{"type":"Feature","id":208,"geometry":{"type":"Point","coordinates":[118.62810980000006,32.058593950000045]},"properties":{"OBJECTID":208,"id":"11月8日","time":"春秋早期","name":"垂鳞纹鬲","location_name":"江苏南京浦口长子山","appearance":"垂鳞纹曲线花纹","longitude":118.6281098,"latitude":32.058593950000002}},{"type":"Feature","id":209,"geometry":{"type":"Point","coordinates":[119.44419030000006,32.134824600000059]},"properties":{"OBJECTID":209,"id":"11月9日","time":"春秋中期","name":"雷纹鬲","location_name":"江苏丹徒大港母子墩","appearance":"凹纹雷纹","longitude":119.4441903,"latitude":32.134824600000002}},{"type":"Feature","id":210,"geometry":{"type":"Point","coordinates":[119.92205940000008,30.996958060000054]},"properties":{"OBJECTID":210,"id":"11月10日","time":"春秋早期","name":"云纹鬲","location_name":"浙江长兴上草楼","appearance":"C形云纹勾连雷纹勾连云纹","longitude":119.92205939999999,"latitude":30.996958060000001}},{"type":"Feature","id":211,"geometry":{"type":"Point","coordinates":[119.92205940000008,30.996958060000054]},"properties":{"OBJECTID":211,"id":"11月11日","time":"春秋早期","name":"云纹鬲","location_name":"浙江长兴上草楼","appearance":"C形云纹勾连雷纹勾连云纹","longitude":119.92205939999999,"latitude":30.996958060000001}},{"type":"Feature","id":212,"geometry":{"type":"Point","coordinates":[119.14949780000006,41.48745961000003]},"properties":{"OBJECTID":212,"id":"15-188","time":"西周晚期至春秋早期","name":"兽头形双耳鬲","location_name":"内蒙古宁城南山银101号墓","appearance":"椭圆三角形兽头形环耳雷纹","longitude":119.14949780000001,"latitude":41.487459610000002}},{"type":"Feature","id":213,"geometry":{"type":"Point","coordinates":[119.14949780000006,41.48745961000003]},"properties":{"OBJECTID":213,"id":"15-189","time":"西周晚期至春秋早期","name":"兽形双耳鬲","location_name":"内蒙古宁城南山银101号墓","appearance":"椭圆三角形两个兽形附耳","longitude":119.14949780000001,"latitude":41.487459610000002}},{"type":"Feature","id":214,"geometry":{"type":"Point","coordinates":[107.86187560000008,34.471187500000042]},"properties":{"OBJECTID":214,"id":"5-102","time":"西周昭王","name":"旂觥","location_name":"陕西扶风庄白村西周窖藏","appearance":"龙角大兽面纹兽面纹卷尾顾龙纹展体式外卷角大兽面纹回顾式花冠龙纹","longitude":107.8618756,"latitude":34.471187499999999}},{"type":"Feature","id":215,"geometry":{"type":"Point","coordinates":[107.86187560000008,34.471187500000042]},"properties":{"OBJECTID":215,"id":"5-103","time":"西周昭王","name":"旂觥","location_name":"陕西扶风庄白村西周窖藏","appearance":"龙角大兽面纹兽面纹卷尾顾龙纹展体式外卷角大兽面纹回顾式花冠龙纹","longitude":107.8618756,"latitude":34.471187499999999}},{"type":"Feature","id":216,"geometry":{"type":"Point","coordinates":[107.86187560000008,34.471187500000042]},"properties":{"OBJECTID":216,"id":"5-104","time":"西周昭王","name":"旂觥","location_name":"陕西扶风庄白村西周窖藏","appearance":"龙角大兽面纹兽面纹卷尾顾龙纹展体式外卷角大兽面纹回顾式花冠龙纹","longitude":107.8618756,"latitude":34.471187499999999}},{"type":"Feature","id":217,"geometry":{"type":"Point","coordinates":[108.01109800000006,34.479882070000031]},"properties":{"OBJECTID":217,"id":"5-107","time":"西周中期","name":"日己觥","location_name":"陕西扶风齐家村西周窖藏","appearance":"虎面纹长冠垂尾凤鸟纹长冠小鸟纹","longitude":108.011098,"latitude":34.479882070000002}},{"type":"Feature","id":218,"geometry":{"type":"Point","coordinates":[108.01109800000006,34.479882070000031]},"properties":{"OBJECTID":218,"id":"5-108","time":"西周早期","name":"日己觥","location_name":"陕西扶风齐家村西周窖藏","appearance":"虎面纹长冠垂尾凤鸟纹长冠小鸟纹","longitude":108.011098,"latitude":34.479882070000002}},{"type":"Feature","id":219,"geometry":{"type":"Point","coordinates":[119.65112030000012,32.182753260000027]},"properties":{"OBJECTID":219,"id":"11-37","time":"春秋早期","name":"兕觥","location_name":"江苏丹徒大港烟墩山","appearance":"凤纹鸟纹","longitude":119.6511203,"latitude":32.182753259999998}},{"type":"Feature","id":220,"geometry":{"type":"Point","coordinates":[119.65112030000012,32.182753260000027]},"properties":{"OBJECTID":220,"id":"11-38","time":"春秋早期","name":"兕觥","location_name":"江苏丹徒大港烟墩山","appearance":"凤纹鸟纹","longitude":119.6511203,"latitude":32.182753259999998}},{"type":"Feature","id":221,"geometry":{"type":"Point","coordinates":[112.03887840000004,30.81593169000007]},"properties":{"OBJECTID":221,"id":"10-97","time":"战国中期","name":"龙纹勾鑃","location_name":"湖北荆门包山","appearance":"龙纹勾连纹几何纹","longitude":112.0388784,"latitude":30.815931689999999}},{"type":"Feature","id":222,"geometry":{"type":"Point","coordinates":[120.58090230000005,29.919931280000071]},"properties":{"OBJECTID":222,"id":"11-74","time":"春秋晚期","name":"配儿勾鑃","location_name":"浙江绍兴狗头山","appearance":"三角形几何纹云雷纹","longitude":120.58090230000001,"latitude":29.91993128}},{"type":"Feature","id":223,"geometry":{"type":"Point","coordinates":[120.58090230000005,29.919931280000071]},"properties":{"OBJECTID":223,"id":"11-75","time":"春秋晚期","name":"配儿勾鑃","location_name":"浙江绍兴狗头山","appearance":"三角形几何纹云雷纹","longitude":120.58090230000001,"latitude":29.91993128}},{"type":"Feature","id":224,"geometry":{"type":"Point","coordinates":[113.26031280000007,23.138432030000047]},"properties":{"OBJECTID":224,"id":"12-171","time":"西汉中期","name":"文帝九年勾鑃","location_name":"广东广州象岗","appearance":null,"longitude":113.26031279999999,"latitude":23.138432030000001}},{"type":"Feature","id":225,"geometry":{"type":"Point","coordinates":[113.53313580000008,34.754771940000069]},"properties":{"OBJECTID":225,"id":"1-145","time":"商早期","name":"兽面纹觚","location_name":"河南郑州白家庄","appearance":"兽面纹","longitude":113.5331358,"latitude":34.754771939999998}},{"type":"Feature","id":226,"geometry":{"type":"Point","coordinates":[113.66563350000001,34.763798160000078]},"properties":{"OBJECTID":226,"id":"1-146","time":"商早期","name":"兽面纹觚","location_name":"河南郑州北二七路","appearance":"兽面纹","longitude":113.6656335,"latitude":34.76379816}},{"type":"Feature","id":227,"geometry":{"type":"Point","coordinates":[116.51997400000005,31.735197890000052]},"properties":{"OBJECTID":227,"id":"1-147","time":"商早期","name":"兽面纹觚","location_name":"安徽六安","appearance":"兽面纹","longitude":116.519974,"latitude":31.735197889999998}},{"type":"Feature","id":228,"geometry":{"type":"Point","coordinates":[107.82914820000008,34.48680636000006]},"properties":{"OBJECTID":228,"id":"1-148","time":"商早期","name":"兽面纹觚","location_name":"陕西岐山京当","appearance":"变形兽面纹联珠纹","longitude":107.82914820000001,"latitude":34.486806360000003}},{"type":"Feature","id":229,"geometry":{"type":"Point","coordinates":[113.65677410000001,34.764417790000039]},"properties":{"OBJECTID":229,"id":"1-149","time":"商早期","name":"兽面纹觚","location_name":"河南郑州铭功路","appearance":"兽面纹","longitude":113.65677410000001,"latitude":34.764417790000003}},{"type":"Feature","id":230,"geometry":{"type":"Point","coordinates":[113.53313580000008,34.754771940000069]},"properties":{"OBJECTID":230,"id":"1-150","time":"商早期","name":"兽面纹觚","location_name":"河南郑州白家庄","appearance":"变形兽面纹联珠纹","longitude":113.5331358,"latitude":34.754771939999998}},{"type":"Feature","id":231,"geometry":{"type":"Point","coordinates":[113.71735970000009,34.46428300000008]},"properties":{"OBJECTID":231,"id":"1-151","time":"商早期","name":"兽面纹觚","location_name":"河南新郑望京楼","appearance":"兽面纹","longitude":113.7173597,"latitude":34.464283000000002}},{"type":"Feature","id":232,"geometry":{"type":"Point","coordinates":[107.25595690000006,33.172845360000053]},"properties":{"OBJECTID":232,"id":"1-152","time":"商早期","name":"兽面纹觚","location_name":"陕西城固龙头镇","appearance":"变形兽面纹","longitude":107.2559569,"latitude":33.172845359999997}},{"type":"Feature","id":233,"geometry":{"type":"Point","coordinates":[113.81432290000009,35.453704990000062]},"properties":{"OBJECTID":233,"id":"1-153","time":"商中期","name":"弦纹觚","location_name":"河南辉县琉璃阁","appearance":"弦纹","longitude":113.81432289999999,"latitude":35.453704989999999}},{"type":"Feature","id":234,"geometry":{"type":"Point","coordinates":[113.81432290000009,35.453704990000062]},"properties":{"OBJECTID":234,"id":"1-154","time":"商中期","name":"兽面纹觚","location_name":"河南辉县琉璃阁","appearance":"兽面纹联珠纹变形兽面纹","longitude":113.81432289999999,"latitude":35.453704989999999}},{"type":"Feature","id":235,"geometry":{"type":"Point","coordinates":[114.25243780000005,30.711712030000058]},"properties":{"OBJECTID":235,"id":"1-155","time":"商中期","name":"镂孔雷纹觚","location_name":"湖北黄陂盘龙城","appearance":"兽面纹雷纹斜角云纹","longitude":114.2524378,"latitude":30.711712030000001}},{"type":"Feature","id":236,"geometry":{"type":"Point","coordinates":[101.61586340000008,34.734698760000072]},"properties":{"OBJECTID":236,"id":"1-156","time":"商中期","name":"夔纹觚","location_name":"河南辉县","appearance":"夔纹","longitude":101.61586339999999,"latitude":34.734698760000001}},{"type":"Feature","id":237,"geometry":{"type":"Point","coordinates":[114.00973040000008,33.65477431000005]},"properties":{"OBJECTID":237,"id":"1-158","time":"商中期","name":"兽面纹觚","location_name":"河南郾城拦河潘","appearance":"兽面纹联珠纹","longitude":114.0097304,"latitude":33.654774310000001}},{"type":"Feature","id":238,"geometry":{"type":"Point","coordinates":[113.53313580000008,34.754771940000069]},"properties":{"OBJECTID":238,"id":"1-159","time":"商中期","name":"兽面纹觚","location_name":"河南郑州白家庄","appearance":"兽面纹联珠纹云雷纹","longitude":113.5331358,"latitude":34.754771939999998}},{"type":"Feature","id":239,"geometry":{"type":"Point","coordinates":[107.25595690000006,33.172845360000053]},"properties":{"OBJECTID":239,"id":"1-160","time":"商中期","name":"兽面纹觚","location_name":"陕西城固龙头镇","appearance":"兽面纹目云纹","longitude":107.2559569,"latitude":33.172845359999997}},{"type":"Feature","id":240,"geometry":{"type":"Point","coordinates":[107.25595690000006,33.172845360000053]},"properties":{"OBJECTID":240,"id":"1-161","time":"商中期","name":"兽面纹觚","location_name":"陕西城固龙头镇","appearance":"变形兽面纹联珠纹目云纹","longitude":107.2559569,"latitude":33.172845359999997}},{"type":"Feature","id":241,"geometry":{"type":"Point","coordinates":[114.42920350000009,35.909638480000069]},"properties":{"OBJECTID":241,"id":"2-103","time":"商代晚期","name":"兽面纹觚","location_name":"河南安阳小屯三八八号墓","appearance":"兽面纹目纹云雷纹","longitude":114.4292035,"latitude":35.909638479999998}},{"type":"Feature","id":242,"geometry":{"type":"Point","coordinates":[114.31142100000011,36.129900270000064]},"properties":{"OBJECTID":242,"id":"2-104","time":"商代晚期","name":"兽面纹觚","location_name":"河南安阳武官北地一号墓","appearance":"兽面纹云雷纹羽毛纹","longitude":114.311421,"latitude":36.12990027}},{"type":"Feature","id":243,"geometry":{"type":"Point","coordinates":[114.42920350000009,35.909638480000069]},"properties":{"OBJECTID":243,"id":"2-105","time":"商代晚期","name":"妇好觚","location_name":"河南安阳小屯五号墓","appearance":"蕉叶纹云雷纹龙纹兽面纹","longitude":114.4292035,"latitude":35.909638479999998}},{"type":"Feature","id":244,"geometry":{"type":"Point","coordinates":[114.42920350000009,35.909638480000069]},"properties":{"OBJECTID":244,"id":"2-106","time":"商代晚期","name":"伐觚","location_name":"河南安阳小屯一八号墓","appearance":"蕉叶纹云雷纹目纹目雷纹兽面纹蛇纹龙纹","longitude":114.4292035,"latitude":35.909638479999998}},{"type":"Feature","id":245,"geometry":{"type":"Point","coordinates":[114.33036230000005,36.124591750000036]},"properties":{"OBJECTID":245,"id":"2-107","time":"商代晚期","name":"兽面纹觚","location_name":"河南安阳大司空南二九号墓","appearance":"蕉叶纹云雷纹兽面纹龙纹","longitude":114.3303623,"latitude":36.12459175}},{"type":"Feature","id":246,"geometry":{"type":"Point","coordinates":[114.33036230000005,36.124591750000036]},"properties":{"OBJECTID":246,"id":"2-108","time":"商代晚期","name":"*觚","location_name":"河南安阳大司空南六六三号墓","appearance":"蕉叶纹云雷纹兽面纹","longitude":114.3303623,"latitude":36.12459175}},{"type":"Feature","id":247,"geometry":{"type":"Point","coordinates":[114.51960900000006,35.563458080000032]},"properties":{"OBJECTID":247,"id":"2-109","time":"商代晚期","name":"*觚","location_name":"河南安阳苗圃南地五八号墓","appearance":"蕉叶纹兽面纹","longitude":114.519609,"latitude":35.563458079999997}},{"type":"Feature","id":248,"geometry":{"type":"Point","coordinates":[114.29747570000006,36.125625240000034]},"properties":{"OBJECTID":248,"id":"2-110","time":"商代晚期","name":"*觚","location_name":"河南安阳孝民屯南一九八号墓","appearance":"蕉叶纹蛇纹兽面纹蝉纹","longitude":114.29747570000001,"latitude":36.125625239999998}},{"type":"Feature","id":249,"geometry":{"type":"Point","coordinates":[114.29747570000006,36.125625240000034]},"properties":{"OBJECTID":249,"id":"2-111","time":"商代晚期","name":"告宁觚","location_name":"河南安阳孝民屯南九零七号墓","appearance":"蕉叶纹兽面纹","longitude":114.29747570000001,"latitude":36.125625239999998}},{"type":"Feature","id":250,"geometry":{"type":"Point","coordinates":[114.51960900000006,35.563458080000032]},"properties":{"OBJECTID":250,"id":"2-112","time":"商代晚期","name":"亚盥觚","location_name":"河南安阳苗圃北地一七二号墓","appearance":"兽面纹","longitude":114.519609,"latitude":35.563458079999997}},{"type":"Feature","id":251,"geometry":{"type":"Point","coordinates":[114.23179260000006,36.213254360000064]},"properties":{"OBJECTID":251,"id":"2-113","time":"商代晚期","name":"兽面纹觚","location_name":"河南安阳梯家口三号墓","appearance":"蕉叶纹兽面纹蝉纹","longitude":114.23179260000001,"latitude":36.213254360000001}},{"type":"Feature","id":252,"geometry":{"type":"Point","coordinates":[114.33036230000005,36.124591750000036]},"properties":{"OBJECTID":252,"id":"2-114","time":"商代晚期","name":"戍马觚","location_name":"河南安阳大司空南二六七号墓","appearance":"蕉叶纹蛇纹兽面纹","longitude":114.3303623,"latitude":36.12459175}},{"type":"Feature","id":253,"geometry":{"type":"Point","coordinates":[114.29747570000006,36.125625240000034]},"properties":{"OBJECTID":253,"id":"2-115","time":"商代晚期","name":"父甲觚","location_name":"河南安阳孝民屯南一五七二号墓","appearance":"蕉叶纹蛇纹兽面纹","longitude":114.29747570000001,"latitude":36.125625239999998}},{"type":"Feature","id":254,"geometry":{"type":"Point","coordinates":[114.29747570000006,36.125625240000034]},"properties":{"OBJECTID":254,"id":"2-116","time":"商代晚期","name":"父己觚","location_name":"河南安阳孝民屯南八五六号墓","appearance":"蕉叶纹兽面纹","longitude":114.29747570000001,"latitude":36.125625239999998}},{"type":"Feature","id":255,"geometry":{"type":"Point","coordinates":[114.29747570000006,36.125625240000034]},"properties":{"OBJECTID":255,"id":"2-117","time":"商代晚期","name":"父己觚","location_name":"河南安阳孝民屯南八五六号墓","appearance":"蕉叶纹兽面纹","longitude":114.29747570000001,"latitude":36.125625239999998}},{"type":"Feature","id":256,"geometry":{"type":"Point","coordinates":[114.29747570000006,36.125625240000034]},"properties":{"OBJECTID":256,"id":"2-118","time":"商代晚期","name":"祖己觚","location_name":"河南安阳孝民屯南一零八零号墓","appearance":"兽面纹","longitude":114.29747570000001,"latitude":36.125625239999998}},{"type":"Feature","id":257,"geometry":{"type":"Point","coordinates":[114.37565860000007,36.101258060000077]},"properties":{"OBJECTID":257,"id":"2-119","time":"商代晚期","name":"宁觚","location_name":"河南安阳刘家庄北二号墓","appearance":"蕉叶纹龙纹兽面纹","longitude":114.37565859999999,"latitude":36.101258059999999}},{"type":"Feature","id":258,"geometry":{"type":"Point","coordinates":[114.37565860000007,36.101258060000077]},"properties":{"OBJECTID":258,"id":"2-120","time":"商代晚期","name":"宁觚","location_name":"河南安阳刘家庄北一号墓","appearance":"蕉叶纹龙纹兽面纹象纹","longitude":114.37565859999999,"latitude":36.101258059999999}},{"type":"Feature","id":259,"geometry":{"type":"Point","coordinates":[114.37565860000007,36.101258060000077]},"properties":{"OBJECTID":259,"id":"2-121","time":"商代晚期","name":"己父觚","location_name":"河南安阳刘家庄南六三号墓","appearance":"蕉叶纹龙纹兽面纹","longitude":114.37565859999999,"latitude":36.101258059999999}},{"type":"Feature","id":260,"geometry":{"type":"Point","coordinates":[114.23179260000006,36.213254360000064]},"properties":{"OBJECTID":260,"id":"2-126","time":"商代晚期","name":"妇觚","location_name":"河南安阳","appearance":"蕉叶纹云雷纹兽面纹","longitude":114.23179260000001,"latitude":36.213254360000001}},{"type":"Feature","id":261,"geometry":{"type":"Point","coordinates":[114.22247390000007,36.171094810000056]},"properties":{"OBJECTID":261,"id":"2-127","time":"商代晚期","name":"亚址方觚","location_name":"河南安阳郭家庄西一六零号墓","appearance":"蕉叶纹兽面纹","longitude":114.2224739,"latitude":36.17109481}},{"type":"Feature","id":262,"geometry":{"type":"Point","coordinates":[114.23179260000006,36.213254360000064]},"properties":{"OBJECTID":262,"id":"2-128","time":"商代晚期","name":"**方觚","location_name":"河南安阳","appearance":"蕉叶纹蛇纹龙纹四瓣花纹兽面纹","longitude":114.23179260000001,"latitude":36.213254360000001}},{"type":"Feature","id":263,"geometry":{"type":"Point","coordinates":[110.97090450000007,36.967267810000067]},"properties":{"OBJECTID":263,"id":"4-65","time":"商代晚期","name":"变形龙纹带铃觚","location_name":"山西石楼桃花庄","appearance":"变形龙纹","longitude":110.9709045,"latitude":36.967267810000003}},{"type":"Feature","id":264,"geometry":{"type":"Point","coordinates":[110.97090450000007,36.967267810000067]},"properties":{"OBJECTID":264,"id":"4-66","time":"商代晚期","name":"兽面纹觚","location_name":"山西石楼桃花庄","appearance":"兽面纹变形龙纹","longitude":110.9709045,"latitude":36.967267810000003}},{"type":"Feature","id":265,"geometry":{"type":"Point","coordinates":[110.83518830000008,36.998137450000058]},"properties":{"OBJECTID":265,"id":"4-67","time":"商代晚期","name":"兽面纹觚","location_name":"山西石楼后阑家沟","appearance":"兽面纹鸟纹","longitude":110.8351883,"latitude":36.998137450000002}},{"type":"Feature","id":266,"geometry":{"type":"Point","coordinates":[114.50737770000001,32.054966400000069]},"properties":{"OBJECTID":266,"id":"4-68","time":"商代晚期","name":"亚鸟觚","location_name":"河南罗山莽张","appearance":"蕉叶形兽面纹蛇纹兽面纹龙纹","longitude":114.50737770000001,"latitude":32.054966399999998}},{"type":"Feature","id":267,"geometry":{"type":"Point","coordinates":[109.07352750000007,34.664319300000045]},"properties":{"OBJECTID":267,"id":"5-95","time":"西周早期","name":"蕉叶凤纹觚","location_name":"陕西扶风庄白村西周窖藏","appearance":"叶形兽体纹长冠分尾凤鸟纹长冠垂尾凤鸟纹","longitude":109.0735275,"latitude":34.664319300000002}},{"type":"Feature","id":268,"geometry":{"type":"Point","coordinates":[109.07352750000007,34.664319300000045]},"properties":{"OBJECTID":268,"id":"5-96","time":"西周早期","name":"旅父乙觚","location_name":"陕西扶风庄白村西周窖藏","appearance":"目雷纹虎耳龙纹","longitude":109.0735275,"latitude":34.664319300000002}},{"type":"Feature","id":269,"geometry":{"type":"Point","coordinates":[109.07352750000007,34.664319300000045]},"properties":{"OBJECTID":269,"id":"5-97","time":"西周早期","name":"兽面纹觚","location_name":"陕西扶风庄白村西周窖藏","appearance":"外卷角兽面纹","longitude":109.0735275,"latitude":34.664319300000002}},{"type":"Feature","id":270,"geometry":{"type":"Point","coordinates":[109.07352750000007,34.664319300000045]},"properties":{"OBJECTID":270,"id":"5-98","time":"西周早期","name":"鳞纹觚","location_name":"陕西扶风庄白村西周窖藏","appearance":"重叠式鳞纹","longitude":109.0735275,"latitude":34.664319300000002}},{"type":"Feature","id":271,"geometry":{"type":"Point","coordinates":[109.63677370000005,23.072929090000059]},"properties":{"OBJECTID":271,"id":"12-168","time":"西汉早期","name":"竞渡纹鼓","location_name":"广西贵县罗泊湾","appearance":"太阳纹点纹同心圆纹变体勾连雷纹锯齿纹翔鹭衔鱼纹","longitude":109.63677370000001,"latitude":23.072929089999999}},{"type":"Feature","id":272,"geometry":{"type":"Point","coordinates":[110.99500220000004,22.918288320000045]},"properties":{"OBJECTID":272,"id":"12-169","time":"西汉晚期","name":"五铢钱纹鼓","location_name":"广西岑溪","appearance":"五铢钱纹","longitude":110.9950022,"latitude":22.918288319999998}},{"type":"Feature","id":273,"geometry":{"type":"Point","coordinates":[110.99500220000004,22.918288320000045]},"properties":{"OBJECTID":273,"id":"12-170","time":"西汉晚期","name":"五铢钱纹鼓","location_name":"广西岑溪","appearance":"五铢钱纹","longitude":110.9950022,"latitude":22.918288319999998}},{"type":"Feature","id":274,"geometry":{"type":"Point","coordinates":[101.52171920000006,25.039163080000037]},"properties":{"OBJECTID":274,"id":"14-199","time":"春秋末期","name":"鼓","location_name":"云南楚雄万家坝","appearance":"太阳纹垂线纹云纹网状纹","longitude":101.52171920000001,"latitude":25.039163080000002}},{"type":"Feature","id":275,"geometry":{"type":"Point","coordinates":[101.52171920000006,25.039163080000037]},"properties":{"OBJECTID":275,"id":"14-200","time":"春秋末期","name":"鼓","location_name":"云南楚雄万家坝","appearance":"云纹","longitude":101.52171920000001,"latitude":25.039163080000002}},{"type":"Feature","id":276,"geometry":{"type":"Point","coordinates":[100.75620080000004,25.490790470000036]},"properties":{"OBJECTID":276,"id":"14-201","time":"战国","name":"鼓","location_name":"云南祥云大波那","appearance":"太阳纹","longitude":100.7562008,"latitude":25.49079047}},{"type":"Feature","id":277,"geometry":{"type":"Point","coordinates":[102.79196050000007,24.401772970000025]},"properties":{"OBJECTID":277,"id":"14-202","time":"战国","name":"鼓","location_name":"云南江川李家山","appearance":"太阳纹斜线三角形纹同心圆纹锯齿纹船纹圆圈纹牛纹","longitude":102.7919605,"latitude":24.40177297}},{"type":"Feature","id":278,"geometry":{"type":"Point","coordinates":[102.79196050000007,24.401772970000025]},"properties":{"OBJECTID":278,"id":"14-203","time":"西汉","name":"贴金铜鼓","location_name":"云南江川李家山","appearance":"同心圆纹三角齿纹","longitude":102.7919605,"latitude":24.40177297}},{"type":"Feature","id":279,"geometry":{"type":"Point","coordinates":[102.69511710000006,24.714598400000057]},"properties":{"OBJECTID":279,"id":"14-204","time":"西汉","name":"鼓","location_name":"云南晋宁石寨山","appearance":"太阳纹斜线三角形纹圆圈纹齿纹同心圆纹","longitude":102.6951171,"latitude":24.7145984}},{"type":"Feature","id":280,"geometry":{"type":"Point","coordinates":[102.69511710000006,24.714598400000057]},"properties":{"OBJECTID":280,"id":"14-205","time":"西汉","name":"鼓","location_name":"云南晋宁石寨山","appearance":"太阳纹斜线三角形纹圆圈纹齿纹同心圆纹","longitude":102.6951171,"latitude":24.7145984}},{"type":"Feature","id":281,"geometry":{"type":"Point","coordinates":[105.16421360000004,23.669349760000046]},"properties":{"OBJECTID":281,"id":"14-206","time":"西汉","name":"鼓","location_name":"云南广南阿章寨","appearance":"太阳纹点纹圆涡纹三角形齿纹船纹齿纹方格纹牛纹","longitude":105.1642136,"latitude":23.669349759999999}},{"type":"Feature","id":282,"geometry":{"type":"Point","coordinates":[105.16421360000004,23.669349760000046]},"properties":{"OBJECTID":282,"id":"14-207","time":"西汉","name":"鼓","location_name":"云南广南阿章寨","appearance":"太阳纹点纹圆涡纹三角形齿纹船纹齿纹方格纹牛纹","longitude":105.1642136,"latitude":23.669349759999999}},{"type":"Feature","id":283,"geometry":{"type":"Point","coordinates":[105.16421360000004,23.669349760000046]},"properties":{"OBJECTID":283,"id":"14-208","time":"西汉","name":"鼓","location_name":"云南广南阿章寨","appearance":"太阳纹点纹圆涡纹三角形齿纹船纹齿纹方格纹牛纹","longitude":105.1642136,"latitude":23.669349759999999}},{"type":"Feature","id":284,"geometry":{"type":"Point","coordinates":[114.29747570000006,36.125625240000034]},"properties":{"OBJECTID":284,"id":"3-180","time":"商代晚期","name":"共罐","location_name":"河南安阳孝民屯南一五二号墓","appearance":"凸弦纹","longitude":114.29747570000001,"latitude":36.125625239999998}},{"type":"Feature","id":285,"geometry":{"type":"Point","coordinates":[118.87762250000003,41.37564967000003]},"properties":{"OBJECTID":285,"id":"15-199","time":"西周晚期至春秋早期","name":"瓦棱纹双联罐","location_name":"内蒙古宁城小黑石沟","appearance":"瓦棱纹","longitude":118.8776225,"latitude":41.375649670000001}},{"type":"Feature","id":286,"geometry":{"type":"Point","coordinates":[114.25243780000005,30.711712030000058]},"properties":{"OBJECTID":286,"id":"1-163","time":"商早期","name":"兽面纹簋","location_name":"湖北黄陂盘龙城","appearance":"兽面纹","longitude":114.2524378,"latitude":30.711712030000001}},{"type":"Feature","id":287,"geometry":{"type":"Point","coordinates":[114.25243780000005,30.711712030000058]},"properties":{"OBJECTID":287,"id":"1-164","time":"商中期","name":"兽面纹簋","location_name":"湖北黄陂盘龙城","appearance":"兽面纹","longitude":114.2524378,"latitude":30.711712030000001}},{"type":"Feature","id":288,"geometry":{"type":"Point","coordinates":[107.24947910000009,33.16674155000004]},"properties":{"OBJECTID":288,"id":"1-165","time":"商中期","name":"乳钉雷纹簋","location_name":"陕西城固龙头镇","appearance":"目云纹,雷纹,乳钉纹","longitude":107.2494791,"latitude":33.166741549999998}},{"type":"Feature","id":289,"geometry":{"type":"Point","coordinates":[114.30610320000005,36.124197240000058]},"properties":{"OBJECTID":289,"id":"2-83","time":"商代晚期","name":"北单簋","location_name":"河南安阳武官北地一号墓","appearance":"蛇纹,云雷文","longitude":114.3061032,"latitude":36.124197240000001}},{"type":"Feature","id":290,"geometry":{"type":"Point","coordinates":[114.28406890000008,36.090246540000066]},"properties":{"OBJECTID":290,"id":"2-84","time":"商代晚期","name":"乳钉纹簋","location_name":"河南安阳孝民屯南二五零八号墓","appearance":"三角纹圆形火纹蝉纹乳钉纹兽面纹","longitude":114.28406889999999,"latitude":36.090246540000003}},{"type":"Feature","id":291,"geometry":{"type":"Point","coordinates":[114.40738720000002,35.488737330000049]},"properties":{"OBJECTID":291,"id":"2-85","time":"商代晚期","name":"*侯簋","location_name":"河南安阳小屯一八号墓","appearance":"三角纹鸟纹百乳雷纹兽面纹","longitude":114.4073872,"latitude":35.488737329999999}},{"type":"Feature","id":292,"geometry":{"type":"Point","coordinates":[114.32447300000001,36.118708940000033]},"properties":{"OBJECTID":292,"id":"2-86","time":"商代晚期","name":"寝出簋","location_name":"河南安阳大司空南五三九号墓","appearance":"龙纹兽面纹","longitude":114.324473,"latitude":36.118708939999998}},{"type":"Feature","id":293,"geometry":{"type":"Point","coordinates":[114.32447300000001,36.118708940000033]},"properties":{"OBJECTID":293,"id":"2-87","time":"商代晚期","name":"见簋","location_name":"河南安阳大司空南六六三号墓","appearance":"三角蝉纹兽面纹百乳雷纹龙纹","longitude":114.324473,"latitude":36.118708939999998}},{"type":"Feature","id":294,"geometry":{"type":"Point","coordinates":[114.32447300000001,36.118708940000033]},"properties":{"OBJECTID":294,"id":"2-88","time":"商代晚期","name":"亚盥簋","location_name":"河南安阳大司空南六六三号墓","appearance":"兽面纹","longitude":114.324473,"latitude":36.118708939999998}},{"type":"Feature","id":295,"geometry":{"type":"Point","coordinates":[114.34851910000009,36.102830710000035]},"properties":{"OBJECTID":295,"id":"2-92","time":"商代晚期","name":"车簋","location_name":"河南安阳郊区","appearance":"龙纹直条纹","longitude":114.3485191,"latitude":36.102830709999999}},{"type":"Feature","id":296,"geometry":{"type":"Point","coordinates":[114.34851910000009,36.102830710000035]},"properties":{"OBJECTID":296,"id":"2-93","time":"商代晚期","name":"子庚簋","location_name":"河南安阳郊区","appearance":"龙纹兽面纹","longitude":114.3485191,"latitude":36.102830709999999}},{"type":"Feature","id":297,"geometry":{"type":"Point","coordinates":[114.34851910000009,36.102830710000035]},"properties":{"OBJECTID":297,"id":"2-94","time":"商代晚期","name":"*簋","location_name":"河南安阳","appearance":"三角蝉纹鸟纹兽面纹龙纹","longitude":114.3485191,"latitude":36.102830709999999}},{"type":"Feature","id":298,"geometry":{"type":"Point","coordinates":[114.2951700000001,36.09192500000006]},"properties":{"OBJECTID":298,"id":"2-96","time":"商代晚期","name":"爰簋","location_name":"河南安阳戚家庄东二六九号墓","appearance":"三角纹龙纹兽面纹","longitude":114.29517,"latitude":36.091925000000003}},{"type":"Feature","id":299,"geometry":{"type":"Point","coordinates":[114.35228250000011,36.07019364000007]},"properties":{"OBJECTID":299,"id":"2-97","time":"商代晚期","name":"鸟*簋","location_name":"河南安阳郭家庄东南一号墓","appearance":"圆形火纹环形龙纹龙纹","longitude":114.3522825,"latitude":36.070193639999999}},{"type":"Feature","id":300,"geometry":{"type":"Point","coordinates":[114.29029130000004,36.119789400000059]},"properties":{"OBJECTID":300,"id":"2-98","time":"商代晚期","name":"寝鱼簋","location_name":"河南安阳孝民屯南一七一三号墓","appearance":"龙纹兽面纹","longitude":114.29029130000001,"latitude":36.119789400000002}},{"type":"Feature","id":301,"geometry":{"type":"Point","coordinates":[114.29029130000004,36.119789400000059]},"properties":{"OBJECTID":301,"id":"2-99","time":"商代晚期","name":"母己簋","location_name":"河南安阳孝民屯南一五七三号墓","appearance":"兽面纹龙纹","longitude":114.29029130000001,"latitude":36.119789400000002}},{"type":"Feature","id":302,"geometry":{"type":"Point","coordinates":[114.34851910000009,36.102830710000035]},"properties":{"OBJECTID":302,"id":"2-101","time":"商代晚期","name":"*簋","location_name":"河南安阳","appearance":"龙纹火纹直棱纹柿蒂纹","longitude":114.3485191,"latitude":36.102830709999999}},{"type":"Feature","id":303,"geometry":{"type":"Point","coordinates":[112.46054590000006,39.983085620000054]},"properties":{"OBJECTID":303,"id":"4-32","time":"商代晚期","name":"乳钉雷纹簋","location_name":"山西右玉大川","appearance":"火纹鸟纹乳钉雷纹兽面纹","longitude":112.4605459,"latitude":39.983085619999997}},{"type":"Feature","id":304,"geometry":{"type":"Point","coordinates":[107.97317410000005,34.417678520000038]},"properties":{"OBJECTID":304,"id":"4-33","time":"商代晚期","name":"乳钉雷纹簋","location_name":"陕西扶风吕宅","appearance":"火纹卷体龙纹乳钉雷纹回顾式鸟纹","longitude":107.97317409999999,"latitude":34.417678520000003}},{"type":"Feature","id":305,"geometry":{"type":"Point","coordinates":[106.74908980000004,33.184034970000027]},"properties":{"OBJECTID":305,"id":"4-34","time":"商代晚期","name":"乳钉雷纹簋","location_name":"陕西城固五郎庙","appearance":"变形目雷纹乳钉雷纹兽面纹","longitude":106.74908979999999,"latitude":33.184034969999999}},{"type":"Feature","id":306,"geometry":{"type":"Point","coordinates":[110.56871640000008,37.203585800000042]},"properties":{"OBJECTID":306,"id":"4-35","time":"商代晚期","name":"直线纹簋","location_name":"陕西清涧张家坬","appearance":"连珠纹直线纹联珠纹直线纹","longitude":110.5687164,"latitude":37.203585799999999}},{"type":"Feature","id":307,"geometry":{"type":"Point","coordinates":[110.48980960000006,37.211149630000079]},"properties":{"OBJECTID":307,"id":"4-37","time":"商代晚期","name":"*簋","location_name":"陕西清涧解家沟","appearance":"三角云纹回顾式卷尾龙纹乳钉雷纹","longitude":110.4898096,"latitude":37.211149630000001}},{"type":"Feature","id":308,"geometry":{"type":"Point","coordinates":[110.48980960000006,37.211149630000079]},"properties":{"OBJECTID":308,"id":"4-38","time":"商代晚期","name":"*簋","location_name":"陕西清涧解家沟","appearance":"三角云纹回顾式卷尾龙纹乳钉雷纹","longitude":110.4898096,"latitude":37.211149630000001}},{"type":"Feature","id":309,"geometry":{"type":"Point","coordinates":[110.48980960000006,37.211149630000079]},"properties":{"OBJECTID":309,"id":"4-39","time":"商代晚期","name":"*簋","location_name":"陕西清涧解家沟","appearance":"三角云纹回顾式卷尾龙纹乳钉雷纹","longitude":110.4898096,"latitude":37.211149630000001}},{"type":"Feature","id":310,"geometry":{"type":"Point","coordinates":[111.90443400000004,36.891891180000073]},"properties":{"OBJECTID":310,"id":"4-42","time":"商代晚期","name":"骡簋","location_name":"山西灵石旌介","appearance":"鸟纹兽面纹龙纹","longitude":111.90443399999999,"latitude":36.891891180000002}},{"type":"Feature","id":311,"geometry":{"type":"Point","coordinates":[111.90443400000004,36.891891180000073]},"properties":{"OBJECTID":311,"id":"4-43","time":"商代晚期","name":"骡簋","location_name":"山西灵石旌介","appearance":"鸟纹兽面纹龙纹","longitude":111.90443399999999,"latitude":36.891891180000002}},{"type":"Feature","id":312,"geometry":{"type":"Point","coordinates":[109.39355500000005,34.591655650000064]},"properties":{"OBJECTID":312,"id":"5-49","time":"西周武王","name":"利簋","location_name":"陕西临潼西段村西周窖藏","appearance":"展体式外卷角兽面纹外卷角兽面纹蝉纹龙纹","longitude":109.39355500000001,"latitude":34.59165565}},{"type":"Feature","id":313,"geometry":{"type":"Point","coordinates":[107.84397870000004,34.472337430000039]},"properties":{"OBJECTID":313,"id":"5-50","time":"西周武王","name":"天亡簋","location_name":"陕西岐山礼村","appearance":"蜗体兽纹弯角鸟纹","longitude":107.84397869999999,"latitude":34.472337430000003}},{"type":"Feature","id":314,"geometry":{"type":"Point","coordinates":[107.83999440000008,34.485728230000063]},"properties":{"OBJECTID":314,"id":"5-51","time":"西周康王","name":"史*簋","location_name":"陕西岐山贺家村西周墓","appearance":"龙纹兽面纹","longitude":107.83999439999999,"latitude":34.485728229999999}},{"type":"Feature","id":315,"geometry":{"type":"Point","coordinates":[108.70092370000003,34.18825927000006]},"properties":{"OBJECTID":315,"id":"5-52","time":"西周早期","name":"兽面纹簋","location_name":"陕西长安大原村西周墓","appearance":"兽面纹龙纹","longitude":108.7009237,"latitude":34.188259270000003}},{"type":"Feature","id":316,"geometry":{"type":"Point","coordinates":[112.49683130000005,34.714019310000026]},"properties":{"OBJECTID":316,"id":"5-53","time":"西周昭王","name":"令簋","location_name":"河南洛阳马坡","appearance":"凤鸟纹勾连雷纹目雷纹","longitude":112.4968313,"latitude":34.714019309999998}},{"type":"Feature","id":317,"geometry":{"type":"Point","coordinates":[112.49683130000005,34.714019310000026]},"properties":{"OBJECTID":317,"id":"5-54","time":"西周昭王","name":"*簋","location_name":"陕西长安花园村西周墓","appearance":"凤鸟纹斜角目纹","longitude":112.4968313,"latitude":34.714019309999998}},{"type":"Feature","id":318,"geometry":{"type":"Point","coordinates":[107.85669030000008,34.465089710000029]},"properties":{"OBJECTID":318,"id":"5-59","time":"西周穆王","name":"*簋","location_name":"陕西扶风庄白村西周墓","appearance":"垂尾式花冠大凤鸟纹","longitude":107.8566903,"latitude":34.465089710000001}},{"type":"Feature","id":319,"geometry":{"type":"Point","coordinates":[109.13592890000007,34.126842740000029]},"properties":{"OBJECTID":319,"id":"5-60","time":"西周穆王","name":"孟簋","location_name":"陕西长安张家坡西周窖藏","appearance":"花冠分尾大凤鸟目纹兽体卷曲纹","longitude":109.1359289,"latitude":34.126842740000001}},{"type":"Feature","id":320,"geometry":{"type":"Point","coordinates":[108.80515570000006,34.086631510000075]},"properties":{"OBJECTID":320,"id":"5-61","time":"西周中期","name":"辅师*簋","location_name":"陕西长安兆元坡","appearance":"长冠分尾凤鸟","longitude":108.8051557,"latitude":34.086631509999997}},{"type":"Feature","id":321,"geometry":{"type":"Point","coordinates":[109.13592890000007,34.126842740000029]},"properties":{"OBJECTID":321,"id":"5-63","time":"西周中期","name":"五年师*簋","location_name":"陕西长安张家坡西周窖藏","appearance":"直条纹长冠分尾凤鸟纹","longitude":109.1359289,"latitude":34.126842740000001}},{"type":"Feature","id":322,"geometry":{"type":"Point","coordinates":[109.13592890000007,34.126842740000029]},"properties":{"OBJECTID":322,"id":"5-64","time":"西周中期","name":"元年师*簋","location_name":"陕西长安张家坡西周窖藏","appearance":"平行沟纹变形兽面纹","longitude":109.1359289,"latitude":34.126842740000001}},{"type":"Feature","id":323,"geometry":{"type":"Point","coordinates":[107.85669030000008,34.465089710000029]},"properties":{"OBJECTID":323,"id":"5-65","time":"西周中期","name":"*簋","location_name":"陕西扶风庄白村西周窖藏","appearance":"直条纹单行连续式鳞纹","longitude":107.8566903,"latitude":34.465089710000001}},{"type":"Feature","id":324,"geometry":{"type":"Point","coordinates":[108.72043050000008,34.199715170000047]},"properties":{"OBJECTID":324,"id":"5-66","time":"西周中期","name":"卫簋","location_name":"陕西长安马王村西周窖藏","appearance":"分解式分枝角兽面纹分枝角兽面纹花冠卷尾凤纹","longitude":108.72043050000001,"latitude":34.199715169999997}},{"type":"Feature","id":325,"geometry":{"type":"Point","coordinates":[108.92768210000008,34.224682180000059]},"properties":{"OBJECTID":325,"id":"5-67","time":"西周夷王","name":"大师*簋","location_name":"陕西西安","appearance":"直条沟纹","longitude":108.9276821,"latitude":34.224682180000002}},{"type":"Feature","id":326,"geometry":{"type":"Point","coordinates":[107.88275480000004,34.45907851000004]},"properties":{"OBJECTID":326,"id":"5-68","time":"西周厉王","name":"*簋","location_name":"陕西扶风齐村","appearance":null,"longitude":107.8827548,"latitude":34.459078509999998}},{"type":"Feature","id":327,"geometry":{"type":"Point","coordinates":[107.39418110000008,34.515432030000056]},"properties":{"OBJECTID":327,"id":"5-71","time":"西周晚期","name":"虎簋","location_name":"陕西凤翔","appearance":"兽目交连纹波曲纹变形兽体纹龙纹","longitude":107.3941811,"latitude":34.515432029999999}},{"type":"Feature","id":328,"geometry":{"type":"Point","coordinates":[116.03161670000009,39.602139980000061]},"properties":{"OBJECTID":328,"id":"6月11日","time":"西周早期","name":"*簋","location_name":"北京琉璃河二五一号墓","appearance":"火纹龙纹兽面纹凤纹","longitude":116.0316167,"latitude":39.602139979999997}},{"type":"Feature","id":329,"geometry":{"type":"Point","coordinates":[119.64078930000005,41.087542420000034]},"properties":{"OBJECTID":329,"id":"6月12日","time":"西周早期","name":"圉簋","location_name":"辽宁喀左小波汰沟","appearance":"兽面纹龙纹","longitude":119.64078929999999,"latitude":41.087542419999998}},{"type":"Feature","id":330,"geometry":{"type":"Point","coordinates":[116.03161670000009,39.602139980000061]},"properties":{"OBJECTID":330,"id":"6月13日","time":"西周早期","name":"圉簋","location_name":"北京琉璃河二五三号墓","appearance":"兽面纹龙纹","longitude":116.0316167,"latitude":39.602139979999997}},{"type":"Feature","id":331,"geometry":{"type":"Point","coordinates":[116.03161670000009,39.602139980000061]},"properties":{"OBJECTID":331,"id":"6月14日","time":"西周早期","name":"攸簋","location_name":"北京琉璃河五三号墓","appearance":"长尾凤纹","longitude":116.0316167,"latitude":39.602139979999997}},{"type":"Feature","id":332,"geometry":{"type":"Point","coordinates":[116.03161670000009,39.602139980000061]},"properties":{"OBJECTID":332,"id":"6月15日","time":"西周早期","name":"伯簋","location_name":"北京琉璃河二零九号墓","appearance":null,"longitude":116.0316167,"latitude":39.602139979999997}},{"type":"Feature","id":333,"geometry":{"type":"Point","coordinates":[114.24142670000003,35.769107460000043]},"properties":{"OBJECTID":333,"id":"6月30日","time":"西周早期","name":"康侯簋","location_name":"河南浚县辛村卫侯墓地","appearance":"火纹四瓣目纹直条纹","longitude":114.24142670000001,"latitude":35.769107460000001}},{"type":"Feature","id":334,"geometry":{"type":"Point","coordinates":[111.55149120000004,35.733255420000035]},"properties":{"OBJECTID":334,"id":"6-39","time":"西周早期","name":"百乳雷纹簋","location_name":"山西曲沃曲村六零八一号墓","appearance":"目雷纹联珠纹乳钉式雷纹羽脊展体式虎头纹","longitude":111.5514912,"latitude":35.733255419999999}},{"type":"Feature","id":335,"geometry":{"type":"Point","coordinates":[111.55149120000004,35.733255420000035]},"properties":{"OBJECTID":335,"id":"6-40","time":"西周早期","name":"回首龙纹簋","location_name":"山西曲沃曲村六一三零号墓","appearance":"回顾式卷尾龙纹弦纹","longitude":111.5514912,"latitude":35.733255419999999}},{"type":"Feature","id":336,"geometry":{"type":"Point","coordinates":[111.55149120000004,35.733255420000035]},"properties":{"OBJECTID":336,"id":"6-41","time":"西周中期","name":"伯簋","location_name":"山西曲沃曲村七二三号墓","appearance":"简化兽面纹长尾鸟纹目雷纹","longitude":111.5514912,"latitude":35.733255419999999}},{"type":"Feature","id":337,"geometry":{"type":"Point","coordinates":[111.57148530000006,35.745518050000044]},"properties":{"OBJECTID":337,"id":"6-42","time":"西周中期","name":"晋侯*簋","location_name":"山西曲沃北赵村晋侯墓地八号墓","appearance":"目雷纹沟纹","longitude":111.57148530000001,"latitude":35.745518050000001}},{"type":"Feature","id":338,"geometry":{"type":"Point","coordinates":[111.57148530000006,35.745518050000044]},"properties":{"OBJECTID":338,"id":"6-43","time":"西周晚期","name":"叔氏簋","location_name":"山西曲沃北赵村晋侯墓地六四号墓","appearance":"直条纹","longitude":111.57148530000001,"latitude":35.745518050000001}},{"type":"Feature","id":339,"geometry":{"type":"Point","coordinates":[116.97709670000006,36.478236150000043]},"properties":{"OBJECTID":339,"id":"6-67","time":"西周晚期","name":"鲁伯大父簋","location_name":"山东历城北草沟","appearance":"横条纹兽目交连纹鳞纹","longitude":116.9770967,"latitude":36.478236150000001}},{"type":"Feature","id":340,"geometry":{"type":"Point","coordinates":[117.06273700000008,35.053255800000045]},"properties":{"OBJECTID":340,"id":"6-78","time":"西周早期","name":"滕侯簋","location_name":"山东滕州庄里西村西周墓","appearance":"龙纹斜方格乳钉纹","longitude":117.062737,"latitude":35.053255800000002}},{"type":"Feature","id":341,"geometry":{"type":"Point","coordinates":[117.21779840000011,35.117329760000075]},"properties":{"OBJECTID":341,"id":"6-79","time":"西周晚期","name":"不*簋","location_name":"山东滕州后荆沟西周墓","appearance":"横条纹兽目交连纹兽体卷曲纹鳞纹","longitude":117.21779840000001,"latitude":35.117329759999997}},{"type":"Feature","id":342,"geometry":{"type":"Point","coordinates":[120.1572953000001,37.387927680000075]},"properties":{"OBJECTID":342,"id":"6-82","time":"西周早期","name":"齐仲簋","location_name":"山东招远东曲城","appearance":"鸟纹弦纹","longitude":120.1572953,"latitude":37.387927679999997}},{"type":"Feature","id":343,"geometry":{"type":"Point","coordinates":[113.14810250000005,33.783721490000062]},"properties":{"OBJECTID":343,"id":"6-93","time":"西周中期","name":"敔簋","location_name":"河南平顶山滍阳岭九五号墓","appearance":"波曲纹","longitude":113.14810249999999,"latitude":33.783721489999998}},{"type":"Feature","id":344,"geometry":{"type":"Point","coordinates":[113.4886451000001,34.142537520000076]},"properties":{"OBJECTID":344,"id":"6-99","time":"西周中期","name":"兽目交连纹簋","location_name":"河南禹县吴湾西周墓","appearance":"兽目交连纹","longitude":113.4886451,"latitude":34.142537519999998}},{"type":"Feature","id":345,"geometry":{"type":"Point","coordinates":[118.87762250000003,41.37564967000003]},"properties":{"OBJECTID":345,"id":"6-100","time":"西周晚期","name":"许季姜簋","location_name":"内蒙古宁城小黑石沟石椁墓","appearance":"直条纹","longitude":118.8776225,"latitude":41.375649670000001}},{"type":"Feature","id":346,"geometry":{"type":"Point","coordinates":[112.52801460000001,32.990549230000056]},"properties":{"OBJECTID":346,"id":"6-106","time":"西周晚期","name":"仲*父簋","location_name":"河南南阳北郊","appearance":"横条纹兽目交连纹鳞纹","longitude":112.52801460000001,"latitude":32.990549229999999}},{"type":"Feature","id":347,"geometry":{"type":"Point","coordinates":[119.65112030000012,32.182753260000027]},"properties":{"OBJECTID":347,"id":"6-118","time":"西周康王","name":"宜侯*簋","location_name":"江苏丹徒烟墩山","appearance":"火纹回顾式龙纹分尾龙纹","longitude":119.6511203,"latitude":32.182753259999998}},{"type":"Feature","id":348,"geometry":{"type":"Point","coordinates":[106.75732460000006,34.878707260000056]},"properties":{"OBJECTID":348,"id":"6-127","time":"西周早期","name":"兽面纹方座簋","location_name":"陕西陇县韦家庄","appearance":"兽面纹兽目交连纹","longitude":106.7573246,"latitude":34.878707259999999}},{"type":"Feature","id":349,"geometry":{"type":"Point","coordinates":[108.69692980000008,34.678668200000061]},